order_id,customer_id,order_status,order_purchase_timestamp,order_approved_at,order_delivered_carrier_date,order_delivered_customer_date,order_estimated_delivery_date,order_item_id,product_id,seller_id,shipping_limit_date,price,freight_value,payment_sequential,payment_type,payment_installments,payment_value,review_id,review_score,review_creation_date,review_answer_timestamp,customer_unique_id,customer_zip_code_prefix,customer_city,customer_state,customer_lat,customer_lng,product_category_name,product_name_lenght,product_description_lenght,product_photos_qty,product_weight_g,product_length_cm,product_height_cm,product_width_cm,seller_zip_code_prefix,seller_city,seller_state,seller_lat,seller_lng
e481f51cbdc54678b7cc49136f2d6af7,9ef432eb6251297304e76186b10a928d,delivered,1506941793,1506942435,1507146900,1507670713,1508284800,1,87285b34884572647811a353c7ac498a,3504c0cb71d7fa48d967e0e4c94d59d9,1507288035,29.99,8.72,1,credit_card,1,18.12,a54f0611adc9ed256b57ede6b6eb5114,4,1507680000,1507779828,7c396fd4830fd04220f754e42b4e5bff,3149,sao paulo,SP,-23.57480921065843,-46.587471259651394,utilidades_domesticas,40.0,268.0,4.0,500.0,19.0,8.0,13.0,9350,maua,SP,-23.68011442853022,-46.4524537436668
e481f51cbdc54678b7cc49136f2d6af7,9ef432eb6251297304e76186b10a928d,delivered,1506941793,1506942435,1507146900,1507670713,1508284800,1,87285b34884572647811a353c7ac498a,3504c0cb71d7fa48d967e0e4c94d59d9,1507288035,29.99,8.72,3,voucher,1,2.0,a54f0611adc9ed256b57ede6b6eb5114,4,1507680000,1507779828,7c396fd4830fd04220f754e42b4e5bff,3149,sao paulo,SP,-23.57480921065843,-46.587471259651394,utilidades_domesticas,40.0,268.0,4.0,500.0,19.0,8.0,13.0,9350,maua,SP,-23.68011442853022,-46.4524537436668
e481f51cbdc54678b7cc49136f2d6af7,9ef432eb6251297304e76186b10a928d,delivered,1506941793,1506942435,1507146900,1507670713,1508284800,1,87285b34884572647811a353c7ac498a,3504c0cb71d7fa48d967e0e4c94d59d9,1507288035,29.99,8.72,2,voucher,1,18.59,a54f0611adc9ed256b57ede6b6eb5114,4,1507680000,1507779828,7c396fd4830fd04220f754e42b4e5bff,3149,sao paulo,SP,-23.57480921065843,-46.587471259651394,utilidades_domesticas,40.0,268.0,4.0,500.0,19.0,8.0,13.0,9350,maua,SP,-23.68011442853022,-46.4524537436668
bfc39df4f36c3693ff3b63fcbea9e90a,53904ddbea91e1e92b2b3f1d09a7af86,delivered,1508801206,1508897651,1509122926,1510077899,1510531200,1,87285b34884572647811a353c7ac498a,3504c0cb71d7fa48d967e0e4c94d59d9,1509416051,29.99,14.1,1,boleto,1,44.09,1bafb430e498b939f258b9c9dbdff9b1,3,1510099200,1510343558,e781fdcc107d13d865fc7698711cc572,88032,florianopolis,SC,-27.536913214854426,-48.50901793197551,utilidades_domesticas,40.0,268.0,4.0,500.0,19.0,8.0,13.0,9350,maua,SP,-23.68011442853022,-46.4524537436668
128e10d95713541c87cd1a2e48201934,a20e8105f23924cd00833fd87daa0831,delivered,1502821771,1502827516,1502983713,1503067483,1503878400,1,87285b34884572647811a353c7ac498a,3504c0cb71d7fa48d967e0e4c94d59d9,1503345916,29.99,7.78,1,credit_card,3,37.77,b46f1e34512b0f4c74a72398b03ca788,4,1503100800,1503242196,3a51803cc0d012c3b5dc8b7528cb05f7,3366,sao paulo,SP,-23.565577756592983,-46.53460292922271,utilidades_domesticas,40.0,268.0,4.0,500.0,19.0,8.0,13.0,9350,maua,SP,-23.68011442853022,-46.4524537436668
0e7e841ddf8f8f2de2bad69267ecfbcf,26c7ac168e1433912a51b924fbd34d34,delivered,1501698287,1501699395,1501868143,1502130601,1502755200,1,87285b34884572647811a353c7ac498a,3504c0cb71d7fa48d967e0e4c94d59d9,1502217451,29.99,7.78,1,credit_card,1,37.77,dc90f19c2806f1abba9e72ad3c350073,5,1502150400,1502234783,ef0996a1a279c26e7ecbd737be23d235,2290,sao paulo,SP,-23.543294842250162,-46.63074319149357,utilidades_domesticas,40.0,268.0,4.0,500.0,19.0,8.0,13.0,9350,maua,SP,-23.68011442853022,-46.4524537436668
de01100645b731556de153cfbebc35b1,94602ee2b2723266d391c94e7d1f4d89,delivered,1502108006,1502109817,1502199169,1502994278,1503964800,1,725cbfcaff95a4d43742fdf13cf43c75,3504c0cb71d7fa48d967e0e4c94d59d9,1502454855,44.99,15.1,1,credit_card,5,60.09,ca7cb3748121ff40c9593af97a039ffb,5,1503014400,1503510119,3b63e7ae5d6058eb51567425722cff95,35400,ouro preto,MG,-20.385237489035717,-43.50551302553521,cool_stuff,58.0,537.0,2.0,1850.0,34.0,5.0,34.0,9350,maua,SP,-23.68011442853022,-46.4524537436668
1f201b2bf1eecbd0ad32c3f430846b84,856f3263eb7af3a48765c85d4d0eea1d,delivered,1506461537,1506462582,1506612483,1507037884,1507680000,1,725cbfcaff95a4d43742fdf13cf43c75,3504c0cb71d7fa48d967e0e4c94d59d9,1506980982,48.9,11.73,1,credit_card,4,60.63,677c67d89dafa61cb029b50d92a0686d,3,1507075200,1507314617,8b8d696df5beff17e7cfef915f0d1d78,5782,sao paulo,SP,-23.652801714124173,-46.768283642937895,cool_stuff,58.0,537.0,2.0,1850.0,34.0,5.0,34.0,9350,maua,SP,-23.68011442853022,-46.4524537436668
e71fb32bec49dd4112bcbcc19126d388,f6c383cc79b182ce1550bc57504941c3,delivered,1501711923,1501712718,1501853991,1502214972,1502755200,1,725cbfcaff95a4d43742fdf13cf43c75,3504c0cb71d7fa48d967e0e4c94d59d9,1502231118,44.99,7.78,1,credit_card,1,2.77,cb88f291b71e37563db00a6a0b5919c7,5,1502236800,1502328830,59b5158dcd4ab8fce908aba30ea36cc9,2919,sao paulo,SP,-23.49313264946043,-46.71915699194992,cool_stuff,58.0,537.0,2.0,1850.0,34.0,5.0,34.0,9350,maua,SP,-23.68011442853022,-46.4524537436668
e71fb32bec49dd4112bcbcc19126d388,f6c383cc79b182ce1550bc57504941c3,delivered,1501711923,1501712718,1501853991,1502214972,1502755200,1,725cbfcaff95a4d43742fdf13cf43c75,3504c0cb71d7fa48d967e0e4c94d59d9,1502231118,44.99,7.78,2,voucher,1,50.0,cb88f291b71e37563db00a6a0b5919c7,5,1502236800,1502328830,59b5158dcd4ab8fce908aba30ea36cc9,2919,sao paulo,SP,-23.49313264946043,-46.71915699194992,cool_stuff,58.0,537.0,2.0,1850.0,34.0,5.0,34.0,9350,maua,SP,-23.68011442853022,-46.4524537436668
9ac4df93702b3a7d40156ef4b6c81417,a2f0e5f633e77e713c7e49a836876c78,delivered,1499264633,1499276084,1499339812,1499880093,1500940800,1,725cbfcaff95a4d43742fdf13cf43c75,3504c0cb71d7fa48d967e0e4c94d59d9,1499794484,44.99,11.85,1,credit_card,1,56.84,f47345ed11637421a907f9426098703e,5,1499904000,1500251712,95de6cd75d82c25e5463531f370aa2a2,13295,itupeva,SP,-23.15915219401001,-47.058207825841066,cool_stuff,58.0,537.0,2.0,1850.0,34.0,5.0,34.0,9350,maua,SP,-23.68011442853022,-46.4524537436668
a0151737f2f0c6c0a5fd69d45f66ceea,fc2697314ab7fbeda62bb6f1afa4efcd,delivered,1499868718,1499869818,1499950025,1500395082,1500940800,1,725cbfcaff95a4d43742fdf13cf43c75,3504c0cb71d7fa48d967e0e4c94d59d9,1500388218,44.99,7.78,1,credit_card,2,52.77,fa5bf792d42ed25f80c54d18aeaa83de,4,1500422400,1500904799,bdd30e6e39cc70dde8665187b57af402,13820,jaguariuna,SP,-22.689712550377955,-46.98249303136359,cool_stuff,58.0,537.0,2.0,1850.0,34.0,5.0,34.0,9350,maua,SP,-23.68011442853022,-46.4524537436668
e8f1a30189522698bfce82adf60472e7,945080eedd200e670d94e8b707422871,delivered,1499255913,1499276311,1499339047,1499460281,1500336000,1,725cbfcaff95a4d43742fdf13cf43c75,3504c0cb71d7fa48d967e0e4c94d59d9,1499794093,44.99,7.78,1,credit_card,2,52.77,f08ff01cc53b9e3acd39659fd8008cb4,5,1499472000,1499686583,0e78d5d8e92c4454512d545b10be8585,13211,jundiai,SP,-23.179889672043977,-46.92851010931866,cool_stuff,58.0,537.0,2.0,1850.0,34.0,5.0,34.0,9350,maua,SP,-23.68011442853022,-46.4524537436668
03eae39a27aeab0f8c9ad5b84555a6d1,d91337c4d268a8a9f17bef015ce9af3d,delivered,1502792637,1502793949,1502898748,1503158797,1503878400,1,725cbfcaff95a4d43742fdf13cf43c75,3504c0cb71d7fa48d967e0e4c94d59d9,1503312349,48.9,11.73,1,credit_card,1,60.63,e6900bd37ec7a3f7b0f0a6c81034ee7d,5,1503187200,1503343004,f4f203a8ddb0c3e44212a6eaf379348e,8441,sao paulo,SP,-23.53126115174324,-46.40068843718707,cool_stuff,58.0,537.0,2.0,1850.0,34.0,5.0,34.0,9350,maua,SP,-23.68011442853022,-46.4524537436668
a3bf941183211246f0d42ad757cba127,3718e1873d5dc3e8d96c0ab783278b02,delivered,1500934585,1501021511,1501081062,1501268806,1501804800,1,725cbfcaff95a4d43742fdf13cf43c75,3504c0cb71d7fa48d967e0e4c94d59d9,1501539911,44.99,7.78,1,credit_card,2,52.77,5fe3f65882f521f0fbc41e59b9fbff24,4,1501286400,1501618000,1bcb517dc3cc80868d2fa941174f386c,6298,osasco,SP,-23.50989400276996,-46.76214752305371,cool_stuff,58.0,537.0,2.0,1850.0,34.0,5.0,34.0,9350,maua,SP,-23.68011442853022,-46.4524537436668
ff12a8872c437666ba0b1df5812a956e,60c2cececa9f77296d64e5a4def548e6,delivered,1501683594,1501684220,1501868143,1502480046,1503532800,1,725cbfcaff95a4d43742fdf13cf43c75,3504c0cb71d7fa48d967e0e4c94d59d9,1502202620,44.99,14.1,1,credit_card,5,59.09,460f85230adbffd91ca36e692fbf945d,5,1502496000,1502761339,e3cfa812865195deccc10fbb07f7185f,30855,belo horizonte,MG,-19.862088971151767,-44.016051412547625,cool_stuff,58.0,537.0,2.0,1850.0,34.0,5.0,34.0,9350,maua,SP,-23.68011442853022,-46.4524537436668
84aaa1a774e37a0a7c1a5413dc49e168,7cc4123da344ba5ca2fa23c0f7903fce,delivered,1500631414,1500632605,1501011928,1501103585,1501718400,1,725cbfcaff95a4d43742fdf13cf43c75,3504c0cb71d7fa48d967e0e4c94d59d9,1501151005,44.99,7.78,1,credit_card,1,52.77,6fda8978599edf0f42e3f19e90c51d79,5,1501113600,1501251070,a6b38dcfe711532c6f588ca185770b2d,5417,sao paulo,SP,-23.56536319233657,-46.68764024978366,cool_stuff,58.0,537.0,2.0,1850.0,34.0,5.0,34.0,9350,maua,SP,-23.68011442853022,-46.4524537436668
0c511eb6cecb1f110a807dad27440c81,915411390c6b557e49b9cf369572d189,delivered,1506437150,1506438282,1506612482,1507667813,1508889600,1,725cbfcaff95a4d43742fdf13cf43c75,3504c0cb71d7fa48d967e0e4c94d59d9,1506956682,48.9,16.6,1,credit_card,1,65.5,8c2052115d045b89f144d3f27d55f6f0,4,1507680000,1507832998,56866c2bd443a3330747d4efa3541c6b,92020,canoas,RS,-29.91005335319802,-51.169226719006566,cool_stuff,58.0,537.0,2.0,1850.0,34.0,5.0,34.0,9350,maua,SP,-23.68011442853022,-46.4524537436668
f72af8df59fdbc3f45aeb2df4e1e9ca1,3f564a14c326f9a681d340e75246b775,delivered,1503047845,1503134696,1503333165,1503502690,1504137600,1,725cbfcaff95a4d43742fdf13cf43c75,3504c0cb71d7fa48d967e0e4c94d59d9,1503566696,48.9,11.73,1,credit_card,3,60.63,df3bde559138dc2ec2d4340e8cfbef26,5,1503532800,1503682640,88914cd8ecf222c3d2b5915960f5abb9,1421,sao paulo,SP,-23.56233151289751,-46.66120425339033,cool_stuff,58.0,537.0,2.0,1850.0,34.0,5.0,34.0,9350,maua,SP,-23.68011442853022,-46.4524537436668
f37bdf37547266e7d6760e52bc87dfe3,8860eda9f0c775c17cf854564eab3418,delivered,1501001396,1501002202,1501079858,1501191247,1502064000,1,725cbfcaff95a4d43742fdf13cf43c75,3504c0cb71d7fa48d967e0e4c94d59d9,1501520602,44.99,7.78,1,credit_card,1,2.77,1d37dd21d43d04d7b35226a84718386b,5,1501200000,1501326262,c6eefe8e9d3cd8a9ef18730a674d9add,2261,sao paulo,SP,-23.467359865947238,-46.577159921316856,cool_stuff,58.0,537.0,2.0,1850.0,34.0,5.0,34.0,9350,maua,SP,-23.68011442853022,-46.4524537436668
f37bdf37547266e7d6760e52bc87dfe3,8860eda9f0c775c17cf854564eab3418,delivered,1501001396,1501002202,1501079858,1501191247,1502064000,1,725cbfcaff95a4d43742fdf13cf43c75,3504c0cb71d7fa48d967e0e4c94d59d9,1501520602,44.99,7.78,2,voucher,1,50.0,1d37dd21d43d04d7b35226a84718386b,5,1501200000,1501326262,c6eefe8e9d3cd8a9ef18730a674d9add,2261,sao paulo,SP,-23.467359865947238,-46.577159921316856,cool_stuff,58.0,537.0,2.0,1850.0,34.0,5.0,34.0,9350,maua,SP,-23.68011442853022,-46.4524537436668
fed5e295c5412218d84f60a3d09717f4,6751d1c35a37bfc06df3bd73a8abfdd7,delivered,1507892381,1507893263,1508177117,1508441601,1508889600,1,725cbfcaff95a4d43742fdf13cf43c75,3504c0cb71d7fa48d967e0e4c94d59d9,1508415263,48.9,11.73,1,credit_card,1,60.63,7473cf424e2e0543783db8d4ef1ae820,4,1508457600,1508742576,30e6832584525af7548c39b006897e34,5858,sao paulo,SP,-23.666803292364122,-46.78338322207837,cool_stuff,58.0,537.0,2.0,1850.0,34.0,5.0,34.0,9350,maua,SP,-23.68011442853022,-46.4524537436668
e55fb3457f263ce9c93e88a934d7cc17,f185f0c103eaf4cdb003c5fd33d29a9c,delivered,1504691531,1504692316,1504887251,1505578768,1505779200,1,5a419dbf24a8c9718fe522b81c69f61a,3504c0cb71d7fa48d967e0e4c94d59d9,1505297116,48.9,11.73,1,credit_card,2,60.63,c11831da09c607f8870fe82d609db9b6,5,1505606400,1505855112,082d6b71dce3485197b2204a0462acff,13186,hortolandia,SP,-22.88751499687903,-47.1957390462855,cool_stuff,53.0,537.0,2.0,1800.0,34.0,5.0,34.0,9350,maua,SP,-23.68011442853022,-46.4524537436668
5c63162ff15f6e39ca02c3dbc82ecf65,d27812f504d4415e126b6fba33f631d0,delivered,1507933831,1507934731,1508177117,1508248984,1508889600,1,5a419dbf24a8c9718fe522b81c69f61a,3504c0cb71d7fa48d967e0e4c94d59d9,1508370331,48.9,11.73,2,voucher,1,50.0,acbd8781f4238e4b4d0a274c413e44b2,5,1508284800,1508512432,86d44b3d6ff74b91728c42119904188d,8780,mogi das cruzes,SP,-23.521449219958896,-46.17673150042011,cool_stuff,53.0,537.0,2.0,1800.0,34.0,5.0,34.0,9350,maua,SP,-23.68011442853022,-46.4524537436668
5c63162ff15f6e39ca02c3dbc82ecf65,d27812f504d4415e126b6fba33f631d0,delivered,1507933831,1507934731,1508177117,1508248984,1508889600,1,5a419dbf24a8c9718fe522b81c69f61a,3504c0cb71d7fa48d967e0e4c94d59d9,1508370331,48.9,11.73,1,credit_card,1,10.63,acbd8781f4238e4b4d0a274c413e44b2,5,1508284800,1508512432,86d44b3d6ff74b91728c42119904188d,8780,mogi das cruzes,SP,-23.521449219958896,-46.17673150042011,cool_stuff,53.0,537.0,2.0,1800.0,34.0,5.0,34.0,9350,maua,SP,-23.68011442853022,-46.4524537436668
44905b3e611d2f738de87a2cca4961b2,93a705448fbbe8d2c10f151c0510cd0c,delivered,1502053380,1502054117,1502118733,1502739365,1503964800,1,5a419dbf24a8c9718fe522b81c69f61a,3504c0cb71d7fa48d967e0e4c94d59d9,1502399717,44.49,15.1,1,credit_card,5,59.59,680e321f8d204094a1cbd8f850c7ede5,5,1502755200,1502853499,1bbae4260b7887325fccae14a592c130,39100,diamantina,MG,-18.233984177733397,-43.59364621093363,cool_stuff,53.0,537.0,2.0,1800.0,34.0,5.0,34.0,9350,maua,SP,-23.68011442853022,-46.4524537436668
0d9a4836459b4ededef3b8dfd7978d3b,ca6a166e2e426cd1120c7929a257408f,delivered,1500895243,1501035812,1501081062,1501528896,1502409600,1,5a419dbf24a8c9718fe522b81c69f61a,3504c0cb71d7fa48d967e0e4c94d59d9,1501554212,44.49,11.85,1,boleto,1,56.34,657037421f5163deca988b34ed8dd52f,5,1501545600,1501634322,4c0a51f04c6f491f080bcdf3baf7eff8,11920,iguape,SP,-24.705292058051395,-47.552215728563844,cool_stuff,53.0,537.0,2.0,1800.0,34.0,5.0,34.0,9350,maua,SP,-23.68011442853022,-46.4524537436668
a5eb6930340dbd674f7f881269ce9579,cc908e0395e8cfbdaee7e977c033746b,delivered,1501769465,1501773315,1501852987,1502547606,1503446400,1,5a419dbf24a8c9718fe522b81c69f61a,3504c0cb71d7fa48d967e0e4c94d59d9,1502291715,44.49,11.85,1,credit_card,1,56.34,28b5d329b2872e369e5ecd1aad4dff9d,5,1502582400,1502662009,1d2c9a902da6feeba78ac9a3b3a7be35,13607,araras,SP,-22.3724074299152,-47.34738062891685,cool_stuff,53.0,537.0,2.0,1800.0,34.0,5.0,34.0,9350,maua,SP,-23.68011442853022,-46.4524537436668
0010b2e5201cc5f1ae7e9c6cc8f5bd00,57ef317d4818cb42680fc9dfd13867ce,delivered,1505151573,1505153077,1505235777,1506172881,1506470400,1,5a419dbf24a8c9718fe522b81c69f61a,3504c0cb71d7fa48d967e0e4c94d59d9,1505498677,48.9,16.6,1,credit_card,3,65.5,f55e59915a07435c3615737a15470d96,5,1506211200,1506278101,e883f26917e2095c439f70c2cf8c914b,22461,rio de janeiro,RJ,-22.960709674995645,-43.21395846517394,cool_stuff,53.0,537.0,2.0,1800.0,34.0,5.0,34.0,9350,maua,SP,-23.68011442853022,-46.4524537436668
e7bb8b6a68e9a70258374f9993b47de7,c902c60532cb6ca611138f5348580a3d,delivered,1501862287,1501863306,1501942059,1502303017,1503532800,1,5a419dbf24a8c9718fe522b81c69f61a,3504c0cb71d7fa48d967e0e4c94d59d9,1502381706,44.49,11.85,1,credit_card,4,56.34,73011c845683e7d51fba325f983c7c1c,5,1502323200,1502449862,9963ec44886d2cd7cfc327c78d714aa1,15040,sao jose do rio preto,SP,-20.799911489122426,-49.418984063255024,cool_stuff,53.0,537.0,2.0,1800.0,34.0,5.0,34.0,9350,maua,SP,-23.68011442853022,-46.4524537436668
6f4e7312027dba2bba5c1b75addfd1ef,db76a08441e64f32ac64a72161893227,delivered,1500454367,1500503712,1500562167,1501173814,1502323200,1,5a419dbf24a8c9718fe522b81c69f61a,3504c0cb71d7fa48d967e0e4c94d59d9,1501021961,44.49,15.1,1,credit_card,5,59.59,7f6c0c07d7253f9433ddecfd2c9fb515,5,1501200000,1501324576,984d917117d762201643440a2c2e001b,27945,macae,RJ,-22.3704,-41.795154,cool_stuff,53.0,537.0,2.0,1800.0,34.0,5.0,34.0,9350,maua,SP,-23.68011442853022,-46.4524537436668
9130f021ebec02fff9a8bf9e04e8101a,63c9751cfa889ceb6f4478eb55959415,delivered,1499248382,1499276510,1499339811,1499462734,1500336000,1,5a419dbf24a8c9718fe522b81c69f61a,3504c0cb71d7fa48d967e0e4c94d59d9,1499794317,44.49,7.78,1,credit_card,2,52.27,4c12fe0de0e0fe72c1cf6904231d45d6,5,1499472000,1499611679,e0c771120076aeef2cc5f6ad7e19477c,13308,itu,SP,-23.387817863375663,-47.347814961436555,cool_stuff,53.0,537.0,2.0,1800.0,34.0,5.0,34.0,9350,maua,SP,-23.68011442853022,-46.4524537436668
3ceb8926c7d570d68d8307beb320f2ae,b79bc49c04e9d0f44712b00179d4a909,delivered,1507550778,1507551967,1507747015,1508355197,1508976000,1,5a419dbf24a8c9718fe522b81c69f61a,3504c0cb71d7fa48d967e0e4c94d59d9,1508160367,48.9,16.6,1,credit_card,1,65.5,8c6f475182abb7257519083547511cc4,3,1508371200,1508764700,ada60145ed9a080e6e3114fe436815e6,20210,rio de janeiro,RJ,-22.905808775174645,-43.19400895420968,cool_stuff,53.0,537.0,2.0,1800.0,34.0,5.0,34.0,9350,maua,SP,-23.68011442853022,-46.4524537436668
88407c8c6e12493ff6e845df39540112,e902cb9d9992a69a267f69dec57aa3a3,delivered,1502762581,1502763313,1502898749,1503698366,1503878400,1,b00a32a0b42fd65efb58a5822009f629,3504c0cb71d7fa48d967e0e4c94d59d9,1503281713,75.9,7.79,1,credit_card,2,83.69,186b702b3817fd5cc00b201b11764d63,4,1503705600,1503951038,28adbfbaf0b9c5e5a0555a8c853a7534,13060,campinas,SP,-22.943830511384977,-47.112331964800475,bebes,58.0,398.0,3.0,238.0,20.0,10.0,15.0,9350,maua,SP,-23.68011442853022,-46.4524537436668
8736140c61ea584cb4250074756d8f3b,ab8844663ae049fda8baf15fc928f47f,delivered,1502372155,1502373009,1502459555,1502910216,1503446400,1,b00a32a0b42fd65efb58a5822009f629,3504c0cb71d7fa48d967e0e4c94d59d9,1502891409,75.9,7.79,1,credit_card,1,83.69,b8238c6515192f8129081e17dc57d169,5,1502928000,1503319407,02c9e0c05a817d4562ec0e8c90f29dba,8577,itaquaquecetuba,SP,-23.48262344063541,-46.37448952833196,bebes,58.0,398.0,3.0,238.0,20.0,10.0,15.0,9350,maua,SP,-23.68011442853022,-46.4524537436668
4f2acff0b7d2bcc4a408abe5a223d407,d67b6cca5a87299f711a6961f579fe67,delivered,1501605095,1501642225,1501770994,1502308610,1503446400,1,b00a32a0b42fd65efb58a5822009f629,3504c0cb71d7fa48d967e0e4c94d59d9,1502160625,75.9,14.28,1,boleto,1,90.18,567900cb1263f2ee7341989937a789cc,5,1502323200,1502485718,aea90564d6f09ae11bf936f55ed49d72,82030,curitiba,PR,-25.397542854838747,-49.31748523951188,bebes,58.0,398.0,3.0,238.0,20.0,10.0,15.0,9350,maua,SP,-23.68011442853022,-46.4524537436668
019aaee09698daf81dcffe9d94a18b5c,e3893e579755de4feb1a4d0313c103fa,delivered,1502373898,1502375018,1502459555,1502539009,1503446400,1,b00a32a0b42fd65efb58a5822009f629,3504c0cb71d7fa48d967e0e4c94d59d9,1502893418,75.9,7.79,1,credit_card,2,83.69,43334848a48a7abf6faa2f8aba675b8a,2,1502582400,1502713498,cd6b577df45c00daa6b2767eaa947c72,13092,campinas,SP,-22.88929691756595,-47.02178184540367,bebes,58.0,398.0,3.0,238.0,20.0,10.0,15.0,9350,maua,SP,-23.68011442853022,-46.4524537436668
e37531db8933bdce0f86e9dc3768759e,74380820e581b5e8585abc1b5e11c079,delivered,1502142503,1502144711,1502197200,1502883746,1503964800,1,b00a32a0b42fd65efb58a5822009f629,3504c0cb71d7fa48d967e0e4c94d59d9,1502663111,75.9,14.28,1,credit_card,1,90.18,e2da524e62e92bd275c2ad9805a80aa4,5,1502928000,1502983575,11f61cff2e9a4f0dc6fbbe30faa54b18,21340,rio de janeiro,RJ,-22.874717797939912,-43.34818802152451,bebes,58.0,398.0,3.0,238.0,20.0,10.0,15.0,9350,maua,SP,-23.68011442853022,-46.4524537436668
bea597ea1f5ff4fa02bcaf403531e944,4a2f70b7ed35b1881bab73d2be8d440c,delivered,1508538888,1508539757,1508788101,1508885036,1509494400,1,c6d0daec0037d0ac4ee036ddff197b35,3504c0cb71d7fa48d967e0e4c94d59d9,1508971757,48.9,11.73,1,voucher,1,60.63,e6fed61d37e68c9ed81e1095a5bafe82,5,1508889600,1509661933,9a6d3775ed3c4dc33243faf14264f1a9,12941,atibaia,SP,-23.118714,-46.53714703438098,cool_stuff,56.0,645.0,2.0,1800.0,34.0,4.0,34.0,9350,maua,SP,-23.68011442853022,-46.4524537436668
a30b65719297f5afcb931bcad170cb7d,d2d82b8e87143477f9a27e005f4b87f3,delivered,1504201780,1504202711,1504287150,1504722783,1505779200,1,c6d0daec0037d0ac4ee036ddff197b35,3504c0cb71d7fa48d967e0e4c94d59d9,1504721111,48.9,13.37,1,credit_card,6,62.27,e3af9663a7385b2109c41b87bdf78b44,5,1504742400,1504834621,3c601cdf47f343edf04dbd987a837a2a,11250,bertioga,SP,-23.828340100753532,-46.1430173832652,cool_stuff,56.0,645.0,2.0,1800.0,34.0,4.0,34.0,9350,maua,SP,-23.68011442853022,-46.4524537436668
f8b3a190c48ca5261da8494b51c540bd,54ac14c3edc253de071e90f1e541bffc,delivered,1509897374,1509898228,1509996804,1510700386,1511827200,1,c6d0daec0037d0ac4ee036ddff197b35,3504c0cb71d7fa48d967e0e4c94d59d9,1510243828,48.9,17.6,1,credit_card,6,66.5,8fb1fbf8f329ea45d50a1fe7f09c3a16,5,1510704000,1518721366,b2ed6ed08d758a308f53dad5d0340548,28621,nova friburgo,RJ,-22.32329784745141,-42.546392467226894,cool_stuff,56.0,645.0,2.0,1800.0,34.0,4.0,34.0,9350,maua,SP,-23.68011442853022,-46.4524537436668
bdfdaf0cec4a3710b0c2a0c91cddaa56,b4a8ee40d78cd04d9a9d2a3f1ce9a96e,delivered,1508080509,1508081298,1508258046,1508865341,1510012800,1,c6d0daec0037d0ac4ee036ddff197b35,3504c0cb71d7fa48d967e0e4c94d59d9,1508426898,48.9,17.6,1,credit_card,3,66.5,aab5e09b2e51fb5b757db9cd7203cbd4,5,1508889600,1509627190,8f59de9bf83de25956e61deace67e77a,39200,corinto,MG,-18.37274023725631,-44.44528162699128,cool_stuff,56.0,645.0,2.0,1800.0,34.0,4.0,34.0,9350,maua,SP,-23.68011442853022,-46.4524537436668
41c045db2d1876be9f05cf4a787693b2,a286f46d6e54cc0179bbb0ee07b0df5e,delivered,1502892390,1502895320,1503070900,1503327913,1503964800,1,5e18248fc768bdb7fc69fd012068d109,3504c0cb71d7fa48d967e0e4c94d59d9,1503413720,24.9,7.78,1,credit_card,1,32.68,b9e086024ceb0234e5950016497a4928,5,1503360000,1503714713,4e4fa2b85379e9db6dc59f873f0a9748,5640,sao paulo,SP,-23.62705347737897,-46.73637582569683,utilidades_domesticas,37.0,749.0,4.0,600.0,16.0,6.0,20.0,9350,maua,SP,-23.68011442853022,-46.4524537436668
5cd9658ba9e8ad15b491928fd7ec370d,cf54331ed702f203f23da3cf5a0de4d2,delivered,1504122237,1504122920,1504204658,1504555482,1505692800,1,605050407239c811cf987c99fbabaf4d,3504c0cb71d7fa48d967e0e4c94d59d9,1504641320,24.9,11.85,1,credit_card,1,36.75,ed72282669dc44e0c531ff09aac82ed1,5,1504569600,1504657922,e1cc1be2730188040748affa422b2803,17050,bauru,SP,-22.321557451007024,-49.09933619193254,brinquedos,60.0,562.0,2.0,700.0,24.0,6.0,19.0,9350,maua,SP,-23.68011442853022,-46.4524537436668
60d13096e69ace88a0c5b8c3805010ca,54bd7edf8250e9e67794e9df507e3720,delivered,1509976090,1510039835,1510323873,1511007701,1511827200,1,605050407239c811cf987c99fbabaf4d,3504c0cb71d7fa48d967e0e4c94d59d9,1510547191,24.9,16.11,1,boleto,1,41.01,567f7936fdc67fde7d86f36e8295fc88,5,1511049600,1511109088,581c85ba0bfacbdb3f21e5ac6fd2187a,28016,campos dos goytacazes,RJ,-21.765734321724032,-41.28050738377931,brinquedos,60.0,562.0,2.0,700.0,24.0,6.0,19.0,9350,maua,SP,-23.68011442853022,-46.4524537436668
4bff39e06ff6b0753c960a52a6b4cf18,1f6708446d3ea27208d14ace89a60d64,delivered,1499865620,1499868620,1499962058,1500063473,1500940800,1,03b58043df5d7424df7eac2be2511c51,3504c0cb71d7fa48d967e0e4c94d59d9,1500387020,44.99,7.78,1,credit_card,1,52.77,0b1003e8a2557852f99001bd5d1a2d36,4,1500076800,1500331294,7e3f883d573c9e96503c9fc51a3ff25d,5528,sao paulo,SP,-23.593395634841322,-46.757875363395996,cool_stuff,56.0,645.0,2.0,1650.0,30.0,4.0,30.0,9350,maua,SP,-23.68011442853022,-46.4524537436668
807d573c36fdd71594efae0ca1db554e,b2fd5cda6445986a32221a9a29897f67,delivered,1500535851,1500536575,1500562167,1501337935,1503446400,1,03b58043df5d7424df7eac2be2511c51,3504c0cb71d7fa48d967e0e4c94d59d9,1501054975,44.99,17.63,1,voucher,1,62.62,958787b5cbb6615e90b5215ec191826b,5,1501372800,1501490219,996fdddf8cd5bbb99b221fcaf5ba1359,60712,fortaleza,CE,-3.804035508639272,-38.56550167352259,cool_stuff,56.0,645.0,2.0,1650.0,30.0,4.0,30.0,9350,maua,SP,-23.68011442853022,-46.4524537436668
61dc7d82d2eb6ecf4f0ac2a3cd693cfb,eda669d85ef713eb385cf57a584a2b68,delivered,1509918893,1509919609,1509996803,1510071357,1510876800,1,03b58043df5d7424df7eac2be2511c51,3504c0cb71d7fa48d967e0e4c94d59d9,1510265209,48.9,11.73,1,credit_card,1,60.63,417cbb2f4c9d48d446ebba30f980d076,5,1510099200,1510171054,cb85e26bc7feed69b59cdd1bc1aecb86,4213,sao paulo,SP,-23.59312204848402,-46.607172559134256,cool_stuff,56.0,645.0,2.0,1650.0,30.0,4.0,30.0,9350,maua,SP,-23.68011442853022,-46.4524537436668
1e7f171b11eff2ba0ffbf95130c2f18a,4d13014c8bb7cd5fe2d9df4ce2a2d200,delivered,1501250917,1501251831,1501517773,1501784610,1502323200,1,03b58043df5d7424df7eac2be2511c51,3504c0cb71d7fa48d967e0e4c94d59d9,1501770231,44.99,7.78,1,credit_card,1,52.77,4f9f514f8a97cbe104208b04d02cf605,4,1501804800,1501891041,b13d30b775be852b487f71adb7092a31,5860,sao paulo,SP,-23.664613967185407,-46.76746998305712,cool_stuff,56.0,645.0,2.0,1650.0,30.0,4.0,30.0,9350,maua,SP,-23.68011442853022,-46.4524537436668
b7077d240d1449882a2aa143b428b8b2,db41b8d7ff23d40f4002903e0109a136,delivered,1508417423,1508555254,1508788759,1509728698,1510099200,1,03b58043df5d7424df7eac2be2511c51,3504c0cb71d7fa48d967e0e4c94d59d9,1508987254,48.9,16.6,1,boleto,1,65.5,6c592f1af0e9d96d4e86efce1ce8b01f,4,1509753600,1509987305,571fd0fd90da8bbbd90e58bbd11aecc6,81320,curitiba,PR,-25.47727317456296,-49.324367105199315,cool_stuff,56.0,645.0,2.0,1650.0,30.0,4.0,30.0,9350,maua,SP,-23.68011442853022,-46.4524537436668
1462290799412b71be32dd880eaf4e1b,220e4b027f0294fd79d2869ef67e7db6,delivered,1503151618,1503375055,1503496469,1504035306,1505433600,1,d7faab3fa0091d1220a8ada9cae1bab3,3504c0cb71d7fa48d967e0e4c94d59d9,1503893455,29.9,14.1,1,boleto,1,44.0,36f6f70dc5e67e8e43b109cae0e92d40,4,1504051200,1504146099,123ae28184c9e80638e71d40e37adc27,94130,gravatai,RS,-29.92155326206326,-51.03848528353922,esporte_lazer,60.0,251.0,1.0,600.0,22.0,5.0,20.0,9350,maua,SP,-23.68011442853022,-46.4524537436668
4ec007fa66327a51919a32d840b49395,37495158e596d9ed20f3a53e8beab81b,delivered,1508072943,1508073978,1508258153,1508956182,1509667200,1,a2e23998b013d26d049d721aa7a32e1b,3504c0cb71d7fa48d967e0e4c94d59d9,1508419578,24.99,14.1,1,credit_card,1,39.09,630d83ef424ddd42bf268577526cd944,3,1508976000,1509482892,ac7de73e07c456ba7c3280010fd90678,30441,belo horizonte,MG,-19.935201059120523,-43.9567957307693,moveis_decoracao,46.0,273.0,3.0,200.0,19.0,11.0,18.0,9350,maua,SP,-23.68011442853022,-46.4524537436668
27bef9e280946001761b32ae6463dbe0,226f45581c1b5fe6ab7ac0d9e060a2c4,delivered,1502378881,1502379822,1502459554,1502743661,1503446400,1,a2e23998b013d26d049d721aa7a32e1b,3504c0cb71d7fa48d967e0e4c94d59d9,1502898222,24.99,7.78,1,credit_card,1,32.77,65107a79b503715226e500d00366f89c,3,1502755200,1502878062,39791463fe4660b0d147813e963801e4,4747,sao paulo,SP,-23.65759442207648,-46.6989063034577,moveis_decoracao,46.0,273.0,3.0,200.0,19.0,11.0,18.0,9350,maua,SP,-23.68011442853022,-46.4524537436668
fd732412d4727a9a7e0d6231b2ca11ed,1a84d26e0b91518f76c51b59bb3e9408,delivered,1503170741,1503171866,1503332819,1504210692,1505952000,1,afa3a51dec198b1d14a0c19849dab3a8,3504c0cb71d7fa48d967e0e4c94d59d9,1503603866,29.9,15.79,1,credit_card,2,45.69,5f68a210962a01dd9add2d4c1be733c0,4,1504224000,1504318755,118be57d1b7de439453a0c6625ad7934,41815,salvador,BA,-12.995364688037398,-38.462041927837724,esporte_lazer,58.0,245.0,4.0,400.0,16.0,6.0,20.0,9350,maua,SP,-23.68011442853022,-46.4524537436668
5f49f31e537f8f1a496454b48edbe34d,a7260a6ccba78544ccfaf43f920b7240,delivered,1503574288,1503575125,1503670675,1503951140,1505347200,2,be03d93320192443b8fa24c0ca6ead98,3504c0cb71d7fa48d967e0e4c94d59d9,1504093525,46.8,67.7,1,credit_card,1,127.45,8899ca945efd951c97107b4966289227,1,1503964800,1504059962,7a1de9bde89aedca8c5fbad489c5571c,1315,sao paulo,SP,-23.552592988343235,-46.64068338732753,utilidades_domesticas,59.0,189.0,3.0,775.0,16.0,16.0,13.0,9350,maua,SP,-23.68011442853022,-46.4524537436668
b095ec7b830d94cc7e1b67fed0455c01,85051f9b3e9909676bf77f69a2c05b20,delivered,1505908189,1505909081,1506013161,1506098254,1507161600,1,6a33f85f66191cc5b645b5f775ca93d9,3504c0cb71d7fa48d967e0e4c94d59d9,1506427481,24.99,8.72,1,credit_card,1,33.71,fd91747d4d8e20048792b0310859782c,4,1506124800,1506378685,dd17d7c53c87783e0f71685dec93b9f3,4011,sao paulo,SP,-23.577403986409998,-46.641656530526866,esporte_lazer,60.0,729.0,4.0,400.0,16.0,6.0,11.0,9350,maua,SP,-23.68011442853022,-46.4524537436668
81c277d38bfc8beca560a53fac3646f5,1748b9f945e5b64b45417d766da4e07f,delivered,1505165772,1505166614,1505315259,1505413950,1505952000,1,6a33f85f66191cc5b645b5f775ca93d9,3504c0cb71d7fa48d967e0e4c94d59d9,1505685014,24.99,8.72,1,voucher,1,33.71,33029e7d12360eb78820a06cf1a7221c,5,1505433600,1505528438,1c707591f8e9763d709df72835e6ba2d,2415,sao paulo,SP,-23.47193716763806,-46.62999953941368,esporte_lazer,60.0,729.0,4.0,400.0,16.0,6.0,11.0,9350,maua,SP,-23.68011442853022,-46.4524537436668
1fa40f202d5d233b6491e976c557b822,50fd5707c28d0a64dc20d67f937dd9ba,delivered,1506204670,1506205511,1506446874,1508447361,1510531200,1,8415b1dae10d2dcb36beec370c6a90cd,3504c0cb71d7fa48d967e0e4c94d59d9,1506551111,28.9,21.15,1,credit_card,1,50.05,4b70092fc12f2328972d5ff1022d87e9,4,1508457600,1508732021,35c6ec4630637b3ec0da6e587f245f83,69043,manaus,AM,-3.076345424923532,-59.9360050217843,utilidades_domesticas,59.0,322.0,5.0,600.0,24.0,5.0,18.0,9350,maua,SP,-23.68011442853022,-46.4524537436668
7badee5c2f143381b7002bfbba9037b8,7a95f1b494f0062025b63b3193421690,delivered,1497447650,1497496243,1497623922,1498152806,1499385600,1,725cbfcaff95a4d43742fdf13cf43c75,e26901d5ab434ce92fd9b5c256820a4e,1498014643,49.9,17.6,1,boleto,1,67.5,f9e54095c60a85759c02142750d38c7f,5,1498176000,1498486944,279d9065b859d2c9caf96ce8b2d0c929,84061,ponta grossa,PR,-25.09651474257935,-50.207689585387506,cool_stuff,58.0,537.0,2.0,1850.0,34.0,5.0,34.0,9350,maua,SP,-23.68011442853022,-46.4524537436668
ebb8082fe1a85f69ce8b2f708d07a910,eacf8d981b61b119a75afa34a977b271,delivered,1495454766,1495458343,1495618462,1496233914,1497312000,1,725cbfcaff95a4d43742fdf13cf43c75,e26901d5ab434ce92fd9b5c256820a4e,1495803943,39.9,14.1,1,credit_card,5,54.0,8cc50e006e8562529d570c4a8a204f27,5,1496275200,1496396557,5491dee0f317e6d8d4dc76ece4eeeb73,31230,belo horizonte,MG,-19.90514649708581,-43.95631225047614,cool_stuff,58.0,537.0,2.0,1850.0,34.0,5.0,34.0,9350,maua,SP,-23.68011442853022,-46.4524537436668
106f6c512adbf8efc43791f75692d25c,ad63c8822d109e745e032497a5fffd68,delivered,1495023390,1495026356,1495100789,1495535081,1496707200,1,725cbfcaff95a4d43742fdf13cf43c75,e26901d5ab434ce92fd9b5c256820a4e,1495544756,39.9,11.85,2,voucher,1,14.38,73b121fbe5a60e0a8b86b5df1d0c3362,4,1495584000,1496954139,ff70aa1b53f643263ead50eed3166164,13574,sao carlos,SP,-22.031055932281127,-47.89876955759132,cool_stuff,58.0,537.0,2.0,1850.0,34.0,5.0,34.0,9350,maua,SP,-23.68011442853022,-46.4524537436668
106f6c512adbf8efc43791f75692d25c,ad63c8822d109e745e032497a5fffd68,delivered,1495023390,1495026356,1495100789,1495535081,1496707200,1,725cbfcaff95a4d43742fdf13cf43c75,e26901d5ab434ce92fd9b5c256820a4e,1495544756,39.9,11.85,4,voucher,1,21.19,73b121fbe5a60e0a8b86b5df1d0c3362,4,1495584000,1496954139,ff70aa1b53f643263ead50eed3166164,13574,sao carlos,SP,-22.031055932281127,-47.89876955759132,cool_stuff,58.0,537.0,2.0,1850.0,34.0,5.0,34.0,9350,maua,SP,-23.68011442853022,-46.4524537436668
106f6c512adbf8efc43791f75692d25c,ad63c8822d109e745e032497a5fffd68,delivered,1495023390,1495026356,1495100789,1495535081,1496707200,1,725cbfcaff95a4d43742fdf13cf43c75,e26901d5ab434ce92fd9b5c256820a4e,1495544756,39.9,11.85,3,voucher,1,11.65,73b121fbe5a60e0a8b86b5df1d0c3362,4,1495584000,1496954139,ff70aa1b53f643263ead50eed3166164,13574,sao carlos,SP,-22.031055932281127,-47.89876955759132,cool_stuff,58.0,537.0,2.0,1850.0,34.0,5.0,34.0,9350,maua,SP,-23.68011442853022,-46.4524537436668
106f6c512adbf8efc43791f75692d25c,ad63c8822d109e745e032497a5fffd68,delivered,1495023390,1495026356,1495100789,1495535081,1496707200,1,725cbfcaff95a4d43742fdf13cf43c75,e26901d5ab434ce92fd9b5c256820a4e,1495544756,39.9,11.85,1,credit_card,1,4.53,73b121fbe5a60e0a8b86b5df1d0c3362,4,1495584000,1496954139,ff70aa1b53f643263ead50eed3166164,13574,sao carlos,SP,-22.031055932281127,-47.89876955759132,cool_stuff,58.0,537.0,2.0,1850.0,34.0,5.0,34.0,9350,maua,SP,-23.68011442853022,-46.4524537436668
bffb2f663c0ea51622bccd351e2815d8,b3dad37a7ed6c67056ababa4a4deff4d,delivered,1495199183,1495200148,1495448217,1495543353,1496275200,1,725cbfcaff95a4d43742fdf13cf43c75,e26901d5ab434ce92fd9b5c256820a4e,1495718548,39.9,8.72,1,credit_card,1,48.62,b28755d34bbaa8e70eebf7be9e153070,5,1495584000,1495706960,d0886880ad8e1bb53c74aa0923b0d0cb,6170,osasco,SP,-23.54585713211952,-46.804890273529864,cool_stuff,58.0,537.0,2.0,1850.0,34.0,5.0,34.0,9350,maua,SP,-23.68011442853022,-46.4524537436668
56dcbf1c8f148732f46bb1770568aa5d,3a6d58dbca99e1b8ef6177a10d451ac5,delivered,1495210607,1495211114,1495611404,1496421184,1498176000,1,725cbfcaff95a4d43742fdf13cf43c75,e26901d5ab434ce92fd9b5c256820a4e,1495729514,39.9,17.63,1,credit_card,5,57.53,68964d9a73d38fc81350b4e480c4cdae,1,1496448000,1496659780,d7f925384467e3c256086de7392ac08b,60871,fortaleza,CE,-3.8320143841248737,-38.49293279877663,cool_stuff,58.0,537.0,2.0,1850.0,34.0,5.0,34.0,9350,maua,SP,-23.68011442853022,-46.4524537436668
f85c3dc1fcb73177a8b063582d72e630,5d53cf7d06f7d471c05fdc316fd16736,delivered,1494883369,1494993327,1495015448,1495459991,1496361600,1,5a419dbf24a8c9718fe522b81c69f61a,e26901d5ab434ce92fd9b5c256820a4e,1495511727,39.9,11.85,1,boleto,1,51.75,5fec932993bc6248562114e5affe6f16,3,1495497600,1495680076,0fbef9a19a7303d17f80e7ca9f9f9992,13417,piracicaba,SP,-22.746032877835145,-47.63636231303046,cool_stuff,53.0,537.0,2.0,1800.0,34.0,5.0,34.0,9350,maua,SP,-23.68011442853022,-46.4524537436668
bacc701eec298cb5520f251e863cde03,ca559371b1efa6b4733abba1c71494c9,delivered,1496314100,1496314994,1496395166,1497033756,1498435200,1,5a419dbf24a8c9718fe522b81c69f61a,e26901d5ab434ce92fd9b5c256820a4e,1496833394,49.9,14.1,1,credit_card,6,64.0,e6346f9b8f836c23e3eb5c38fd1aa9b2,5,1497052800,1497188836,3ef848190859d1383be83ef97ae6fedd,31310,belo horizonte,MG,-19.875867454065446,-43.98278199806675,cool_stuff,53.0,537.0,2.0,1800.0,34.0,5.0,34.0,9350,maua,SP,-23.68011442853022,-46.4524537436668
ddc7e0a6253bc5f668507296a8d17c85,98ee0e7037a72a373dde3cb7eb3dff5b,delivered,1496674811,1496675417,1496920530,1497052765,1497830400,1,5a419dbf24a8c9718fe522b81c69f61a,e26901d5ab434ce92fd9b5c256820a4e,1497021017,49.9,8.72,1,credit_card,5,58.62,1801df42546f925e809e05ffb6fe12fc,5,1497052800,1497140868,ef2a6a46966c323b241c5d77a1920458,13466,americana,SP,-22.752315072998986,-47.323714923682786,cool_stuff,53.0,537.0,2.0,1800.0,34.0,5.0,34.0,9350,maua,SP,-23.68011442853022,-46.4524537436668
bc4bfcffb1b6e4942fa9e911883e6c98,a52734ee63bbdd3515b91c523b2063ec,delivered,1495363352,1495364114,1495448679,1495700911,1496966400,1,5a419dbf24a8c9718fe522b81c69f61a,e26901d5ab434ce92fd9b5c256820a4e,1495709714,49.9,11.85,1,credit_card,1,61.75,505900eea2f3436bf7e69835b8b0762f,4,1495756800,1495850829,be6142cc0f610cf3fdf18d60f2498894,13806,mogi-mirim,SP,-22.41005254410913,-46.97276509151268,cool_stuff,53.0,537.0,2.0,1800.0,34.0,5.0,34.0,9350,maua,SP,-23.68011442853022,-46.4524537436668
a17d59822796f1d50132863fd085f109,39594b7114e70f980097f1c4a4f01688,delivered,1494451592,1494557119,1494924724,1495195538,1496102400,1,5a419dbf24a8c9718fe522b81c69f61a,e26901d5ab434ce92fd9b5c256820a4e,1495075519,39.9,15.1,1,boleto,1,55.0,9ee73742033782063488efa3e5ecd739,4,1495238400,1495500632,af40b8b8a23a2e3c5ad33aaf8508a621,85605,francisco beltrao,PR,-26.07720423772551,-53.04127445014873,cool_stuff,53.0,537.0,2.0,1800.0,34.0,5.0,34.0,9350,maua,SP,-23.68011442853022,-46.4524537436668
89e371394a8b2bf6c2648361a2e60b24,781a3ab88167cad21622409d2d9209a9,delivered,1502919862,1502925940,1503317812,1504004295,1503964800,1,5a419dbf24a8c9718fe522b81c69f61a,e26901d5ab434ce92fd9b5c256820a4e,1503444340,44.9,13.08,1,credit_card,2,57.98,e288342292a1effbfc20a9191abc7fdf,3,1504051200,1504113221,0c7a69361db0dee0ed39da8c6f786365,8142,sao paulo,SP,-23.52455351457096,-46.389812155144575,cool_stuff,53.0,537.0,2.0,1800.0,34.0,5.0,34.0,9350,maua,SP,-23.68011442853022,-46.4524537436668
d7520dd6301787392e59dddbbc68ea22,7595e4347e556e9e047cd6aef77ba4f1,delivered,1494789491,1494876318,1495113177,1495443903,1495584000,1,5a419dbf24a8c9718fe522b81c69f61a,e26901d5ab434ce92fd9b5c256820a4e,1495221918,39.9,8.72,1,voucher,1,48.62,ea1130c75988006c15ad65f400e5e258,5,1495497600,1495590690,970cf46f7115375cd62b593635e73e28,2559,sao paulo,SP,-23.493812731057762,-46.67432020760002,cool_stuff,53.0,537.0,2.0,1800.0,34.0,5.0,34.0,9350,maua,SP,-23.68011442853022,-46.4524537436668
1a68123d36b3a96ebeb710db015da2e3,08e67c772d6a0d150aabc46eda41b466,delivered,1504099295,1504100108,1504197421,1504545947,1505174400,1,5a419dbf24a8c9718fe522b81c69f61a,e26901d5ab434ce92fd9b5c256820a4e,1504618508,44.9,13.08,1,credit_card,1,57.98,83668a6b7a0ebe142853f6e2c22c131a,5,1504569600,1505113616,c75c6472c97395f646052da1c2e574f1,13284,vinhedo,SP,-23.028817866450467,-46.98774817623808,cool_stuff,53.0,537.0,2.0,1800.0,34.0,5.0,34.0,9350,maua,SP,-23.68011442853022,-46.4524537436668
25148bab087c1b9453abd98860a89993,7f36f0157804b66666fe74cdbde2f1e4,delivered,1498067981,1498097429,1498471022,1498597530,1499126400,1,a298a105818dce6878b787e4af6cff7d,e26901d5ab434ce92fd9b5c256820a4e,1498615829,79.9,7.81,1,boleto,1,87.71,e27f5bd0f0d52f55aa0fcdd749552e35,5,1498694400,1498918752,897201fd314cec3487c3ff875f081b0c,5634,sao paulo,SP,-23.608349214265107,-46.735364415344236,bebes,55.0,1158.0,2.0,400.0,30.0,10.0,30.0,9350,maua,SP,-23.68011442853022,-46.4524537436668
7b50d6c8484155685a9780c8a85a48fc,43e0730019df444079135bad56922da3,delivered,1495100929,1495102946,1495185220,1495494259,1496188800,1,a298a105818dce6878b787e4af6cff7d,e26901d5ab434ce92fd9b5c256820a4e,1495621346,79.9,7.81,1,credit_card,4,87.71,f915fd27e994158d65fe256d76e5f94c,5,1495497600,1495763965,be655f9f2e6980b38b839352c2865b39,5782,sao paulo,SP,-23.652801714124173,-46.768283642937895,bebes,55.0,1158.0,2.0,400.0,30.0,10.0,30.0,9350,maua,SP,-23.68011442853022,-46.4524537436668
eac4ffbe456464bdc3ce5f001b6439c5,237098a64674ae89babdc426746260fc,delivered,1492169096,1492169723,1492425830,1492707891,1494374400,1,a298a105818dce6878b787e4af6cff7d,e26901d5ab434ce92fd9b5c256820a4e,1492688123,79.9,14.73,1,credit_card,1,94.63,aa4cf51748aecece51748f5d1dd9fad7,5,1492732800,1492824947,4390ddbb6276a66ff1736a6710205dca,82820,curitiba,PR,-25.424755962259752,-49.2010723395753,bebes,55.0,1158.0,2.0,400.0,30.0,10.0,30.0,9350,maua,SP,-23.68011442853022,-46.4524537436668
1a759afeff9fdaa432f1bed1c6f1b86a,d001995debbd9286892642f5efb1aefb,delivered,1498561970,1498615826,1498720334,1499354167,1500595200,1,a298a105818dce6878b787e4af6cff7d,e26901d5ab434ce92fd9b5c256820a4e,1499134226,79.9,15.31,1,boleto,1,95.21,11eda623e004575094014ef5dbe9dd7e,4,1499385600,1499476454,00cd767526517f8a4fc27db6cc5a52fa,95650,igrejinha,RS,-29.546857298676724,-50.77553403340213,bebes,55.0,1158.0,2.0,400.0,30.0,10.0,30.0,9350,maua,SP,-23.68011442853022,-46.4524537436668
5dbd99a1d0b13836606e44c8efe79fa9,c2043136b06ed8ee03cfe2c801d8d145,delivered,1497521440,1497671068,1498219984,1498666507,1498694400,1,a298a105818dce6878b787e4af6cff7d,e26901d5ab434ce92fd9b5c256820a4e,1498102424,79.9,7.81,1,boleto,1,87.71,b4bfee48259794e76c0ec98fcd95ce13,4,1498694400,1498792020,86d4dc92e6974f6b3537470b87fa120d,13206,jundiai,SP,-23.211714582578274,-46.8753760355472,bebes,55.0,1158.0,2.0,400.0,30.0,10.0,30.0,9350,maua,SP,-23.68011442853022,-46.4524537436668
6c11e140918a3b9a02281ef9ca0fa248,cd97862fed4c0d77b4e231f842935a99,delivered,1495782273,1496118169,1496300245,1496413019,1496880000,1,a298a105818dce6878b787e4af6cff7d,e26901d5ab434ce92fd9b5c256820a4e,1496636569,79.9,7.81,1,boleto,1,87.71,e819dd220aa9ecdf4ac22c0c100cb87b,5,1496448000,1496793931,6841703af59c5c1289294089c45edd15,5185,sao paulo,SP,-23.44697897307979,-46.7472294060534,bebes,55.0,1158.0,2.0,400.0,30.0,10.0,30.0,9350,maua,SP,-23.68011442853022,-46.4524537436668
834780043eaf86f9e26f352161b6dfa8,293b54046b97ac0c171e5cb2dcd911f1,invoiced,1501542393,1501642525,-9223372036,-9223372036,1503360000,1,a298a105818dce6878b787e4af6cff7d,e26901d5ab434ce92fd9b5c256820a4e,1502160925,79.9,12.06,1,boleto,1,91.96,2fbf42d2b864d29928855064088cf71a,1,1503705600,1503779871,288ee8f382b32bc001646e4fb85c8d6b,37550,pouso alegre,MG,-22.234236622623648,-45.93524204899442,bebes,55.0,1158.0,2.0,400.0,30.0,10.0,30.0,9350,maua,SP,-23.68011442853022,-46.4524537436668
66582c0b6f09819676df894a431275fb,16547cc187e249ef13e8fea3ee0b2c08,delivered,1491495630,1491496518,1491576141,1492609999,1493683200,1,a298a105818dce6878b787e4af6cff7d,e26901d5ab434ce92fd9b5c256820a4e,1492014918,79.9,14.73,1,credit_card,1,94.63,f49e2819fd03dba56f46ef614bd679db,4,1492646400,1492722844,d4dccf9ceeb1a8e1cbe051fdd0d10a50,37550,pouso alegre,MG,-22.234236622623648,-45.93524204899442,bebes,55.0,1158.0,2.0,400.0,30.0,10.0,30.0,9350,maua,SP,-23.68011442853022,-46.4524537436668
5898109e955bbfdb67655f3aa64ecd72,28e38ef5bed60776f44498addfcd8b9a,delivered,1500231639,1500232507,1500388719,1500656998,1502150400,1,a298a105818dce6878b787e4af6cff7d,e26901d5ab434ce92fd9b5c256820a4e,1500578107,79.9,12.06,1,credit_card,3,91.96,aaabba8918076037c001da336eddbfd1,5,1500681600,1500846376,69977fd9753c73f986ee7ef391bc96d9,37550,pouso alegre,MG,-22.234236622623648,-45.93524204899442,bebes,55.0,1158.0,2.0,400.0,30.0,10.0,30.0,9350,maua,SP,-23.68011442853022,-46.4524537436668
5661334c9510e077f8dabbc4732f75a5,9242a97b0df4424530fff3d3ce4e298e,delivered,1497306328,1497328375,1497422050,1497909347,1499040000,1,a298a105818dce6878b787e4af6cff7d,e26901d5ab434ce92fd9b5c256820a4e,1497846619,79.9,12.06,1,boleto,1,91.96,9fac58b91b3d68c1e6d3e66bd5d8ec12,5,1498003200,1498096906,dddcf588e5e05cf56366b078e169fdc1,17280,pederneiras,SP,-22.3308507978399,-48.80069173298912,bebes,55.0,1158.0,2.0,400.0,30.0,10.0,30.0,9350,maua,SP,-23.68011442853022,-46.4524537436668
721ba0a3a5e7b741323fd37db5e04efe,e41df38e44405433beb499b662d899e9,delivered,1500379017,1500436216,1500911038,1501064545,1501459200,1,a298a105818dce6878b787e4af6cff7d,e26901d5ab434ce92fd9b5c256820a4e,1500954616,79.9,7.81,1,boleto,1,87.71,3e35d925b7b3f0f3a1bafa043abd4e2e,5,1501027200,1501165049,c49f745848e9d7bdb43974ed29a45190,13076,campinas,SP,-22.88255076242137,-47.046919657366274,bebes,55.0,1158.0,2.0,400.0,30.0,10.0,30.0,9350,maua,SP,-23.68011442853022,-46.4524537436668
0494bfa608beaca61486b71439135973,d66608953619ee144d97bc31d4309228,delivered,1493586450,1493587346,1493898774,1494511084,1495497600,1,a298a105818dce6878b787e4af6cff7d,e26901d5ab434ce92fd9b5c256820a4e,1493932946,79.9,11.17,1,credit_card,4,91.07,c5a7bcb08598a74cd8d5800f7da1a2b9,5,1494547200,1494696506,083498d5fbdd0f87b140bdcfbc55dbe7,7791,cajamar,SP,-23.410894778076816,-46.86669107437556,bebes,55.0,1158.0,2.0,400.0,30.0,10.0,30.0,9350,maua,SP,-23.68011442853022,-46.4524537436668
904da7bf9d2b7b563a9aa28683a19455,1a3f26c6b49cb0170586ddce31301c78,delivered,1490721781,1490722518,1490865624,1491397470,1492560000,1,a298a105818dce6878b787e4af6cff7d,e26901d5ab434ce92fd9b5c256820a4e,1491240918,79.9,14.73,1,credit_card,1,94.63,93d8982bc5a71d9daa9168703803d779,5,1491436800,1491857270,0dc6af7fb0b1b3ce4105280cede1001b,20521,rio de janeiro,RJ,-22.92505850706913,-43.230232813203365,bebes,55.0,1158.0,2.0,400.0,30.0,10.0,30.0,9350,maua,SP,-23.68011442853022,-46.4524537436668
4af8a8384c4092c4cf301aaecfdb5007,d203640f43b16ed84faf7c5895e28202,delivered,1497348151,1497348623,1497434285,1497633991,1500336000,1,a298a105818dce6878b787e4af6cff7d,e26901d5ab434ce92fd9b5c256820a4e,1497867023,79.9,21.36,1,credit_card,3,101.26,7986db5f35510952830d540c51fb143a,5,1497657600,1497768510,fb6dbb9417d65096d0f78e7c1551a9b6,64078,teresina,PI,-5.102923114687079,-42.760121119010456,bebes,55.0,1158.0,2.0,400.0,30.0,10.0,30.0,9350,maua,SP,-23.68011442853022,-46.4524537436668
4a38745716bb4884b76fd3a12ad5cdd2,2c12c50306eac1f3254f0975a2d1eb7b,delivered,1497973554,1497974121,1498472482,1498570330,1499040000,1,a298a105818dce6878b787e4af6cff7d,e26901d5ab434ce92fd9b5c256820a4e,1498492521,79.9,7.81,1,credit_card,1,87.71,2718209f577fc801f80834c464577d9a,4,1498608000,1498864265,ee04cc9bca4c9198bec5c54c2542dd3b,8676,suzano,SP,-23.552826070523995,-46.3066973449648,bebes,55.0,1158.0,2.0,400.0,30.0,10.0,30.0,9350,maua,SP,-23.68011442853022,-46.4524537436668
814f83a0c457db5d3220e5e7367a944d,0d45bdea2b7f24d31d6d7da7a8c12d0d,delivered,1494352457,1494353409,1494505714,1495003919,1496016000,1,a298a105818dce6878b787e4af6cff7d,e26901d5ab434ce92fd9b5c256820a4e,1494871809,79.9,14.31,1,credit_card,4,94.21,b39ae3a84d6f6279c830b007e92bfee1,5,1495065600,1495298051,b8675e46655f71c128a083ff4152d39a,26554,mesquita,RJ,-22.78905164597771,-43.44188413860589,bebes,55.0,1158.0,2.0,400.0,30.0,10.0,30.0,9350,maua,SP,-23.68011442853022,-46.4524537436668
4edaf27ed056e42729b2700dfd0dbccc,551f10aba6594e3e1cb5fc859cd349a2,delivered,1495104852,1495105526,1495185217,1495548456,1496188800,1,a298a105818dce6878b787e4af6cff7d,e26901d5ab434ce92fd9b5c256820a4e,1495623926,79.9,7.81,1,credit_card,4,87.71,cbc9f96a8b5d8a6e9528694410239101,5,1495584000,1495680833,270a2cd191cd19898f8abd07c5c248fc,7243,guarulhos,SP,-23.434701180163838,-46.4089035900819,bebes,55.0,1158.0,2.0,400.0,30.0,10.0,30.0,9350,maua,SP,-23.68011442853022,-46.4524537436668
478232e63af0da7ce4c2e2081629ccfe,c17267116673d32cbb4178325794613f,delivered,1496670045,1496670623,1496827951,1498063307,1499644800,1,a298a105818dce6878b787e4af6cff7d,e26901d5ab434ce92fd9b5c256820a4e,1497016223,79.9,25.84,1,credit_card,3,105.74,90f969fae78bcc47b4806a57023560bd,5,1498089600,1498346153,ccba123d7e139740a33eda4ab612bb89,62400,camocim,CE,-2.906605966187089,-40.842654474320604,bebes,55.0,1158.0,2.0,400.0,30.0,10.0,30.0,9350,maua,SP,-23.68011442853022,-46.4524537436668
423c9f7fb9e8d430438bdac01e58c635,05ecb5fcafedf08e2eff99a170b9b3c8,delivered,1497446535,1497447315,1497625049,1497878407,1498608000,1,a298a105818dce6878b787e4af6cff7d,e26901d5ab434ce92fd9b5c256820a4e,1497965715,79.9,7.81,1,credit_card,3,87.71,330974ddbe72b9bfdb7f8b5689d45e56,5,1497916800,1499099322,551415a9e398fd0e5fc764c172de3c3b,13202,jundiai,SP,-23.207180112486487,-46.8769304786459,bebes,55.0,1158.0,2.0,400.0,30.0,10.0,30.0,9350,maua,SP,-23.68011442853022,-46.4524537436668
42fdc0817cb49d77bca55ffa9892c2fe,642d384dec6ec1959159dd012f83a7ce,delivered,1491818398,1491819315,1492425828,1492610606,1493683200,1,a298a105818dce6878b787e4af6cff7d,e26901d5ab434ce92fd9b5c256820a4e,1492164915,79.9,11.17,1,credit_card,9,91.07,4a15677e13e2ec44df39674768f0be2a,5,1492646400,1493032845,1da6142cc08a390d56aca00ca0bf334e,4269,sao paulo,SP,-23.594828563419696,-46.612310207600004,bebes,55.0,1158.0,2.0,400.0,30.0,10.0,30.0,9350,maua,SP,-23.68011442853022,-46.4524537436668
1930384017f3832931c87efb27d455f7,612710bbe8a65f14327ffb3bb51b208a,delivered,1493421100,1493421766,1493898776,1494341543,1495411200,1,a298a105818dce6878b787e4af6cff7d,e26901d5ab434ce92fd9b5c256820a4e,1493940166,79.9,11.17,1,credit_card,1,91.07,7aeef5fe8cb86ad1350c947b81ce3999,5,1494374400,1494498156,5d7ece4f7e312b7f234c125ba99d0d46,5787,sao paulo,SP,-23.617301145525452,-46.75773107172503,bebes,55.0,1158.0,2.0,400.0,30.0,10.0,30.0,9350,maua,SP,-23.68011442853022,-46.4524537436668
049bad09d9281445edb6dd1d6ece7395,95ef10c6dea554e64f436a44e8fd723f,delivered,1500032201,1500032720,1500389255,1501068128,1501113600,1,a298a105818dce6878b787e4af6cff7d,e26901d5ab434ce92fd9b5c256820a4e,1500551120,79.9,7.81,1,credit_card,2,87.71,5b6c7183b7e7852246a7bfa48cc7d893,5,1501113600,1501183455,e0fc0a290b1d791ac8e3c87a44cd95ae,3978,sao paulo,SP,-23.62071102819607,-46.50502035212637,bebes,55.0,1158.0,2.0,400.0,30.0,10.0,30.0,9350,maua,SP,-23.68011442853022,-46.4524537436668
5508daa213736c46607364c74e226dfa,455dd870e5dc21f9f8595e7d81ade6a0,delivered,1494099858,1494100517,1494317922,1494619062,1495152000,1,a298a105818dce6878b787e4af6cff7d,e26901d5ab434ce92fd9b5c256820a4e,1494532517,79.9,7.81,1,credit_card,1,87.71,742ef37ca795af6e2433f8148679595e,5,1494720000,1494985595,5f8908fe5f61b5510a2c336aa0cc8a15,5083,sao paulo,SP,-23.53200228781236,-46.719049405909175,bebes,55.0,1158.0,2.0,400.0,30.0,10.0,30.0,9350,maua,SP,-23.68011442853022,-46.4524537436668
56cdfcbf34dbccee2a6ee43ac8382ec1,3e3fa4f86f34eef3b2eb0211c5657bf6,delivered,1500566145,1500566727,1500900103,1501271308,1502409600,1,a298a105818dce6878b787e4af6cff7d,e26901d5ab434ce92fd9b5c256820a4e,1501085127,79.9,15.31,1,credit_card,2,95.21,19b5e7b6efe196721107d9aa55d2391c,5,1501286400,1501372224,f35d2ef8ed8e757eabb0dc3aadfe0ad0,35661,para de minas,MG,-19.86043877469569,-44.59797225430084,bebes,55.0,1158.0,2.0,400.0,30.0,10.0,30.0,9350,maua,SP,-23.68011442853022,-46.4524537436668
7344a05173d4e1ad58c9a7501132c3d4,3923d75ad6b037d2ffa205f54a1fa392,delivered,1496305159,1496305816,1496395171,1496676966,1497398400,1,a298a105818dce6878b787e4af6cff7d,e26901d5ab434ce92fd9b5c256820a4e,1496824216,79.9,7.81,1,credit_card,8,87.71,3148213d2390c6e2b167c3fa01dc948c,5,1496707200,1497132776,ce738596250d5393900e85087867892d,6213,osasco,SP,-23.532363997201372,-46.76773272202672,bebes,55.0,1158.0,2.0,400.0,30.0,10.0,30.0,9350,maua,SP,-23.68011442853022,-46.4524537436668
7d964b461e0b6fd45adfe909dcd65ddf,a43fb0ea4c44e0767ef51bfbb689fc51,delivered,1497440152,1497495326,1497624691,1498060067,1498608000,1,a298a105818dce6878b787e4af6cff7d,e26901d5ab434ce92fd9b5c256820a4e,1498013726,79.9,7.81,1,boleto,1,87.71,9351b022da23d9dfae91c6bcfdbc178b,4,1498089600,1498586769,470613575ea5c168b39832a766ec52a6,5527,sao paulo,SP,-23.599359778336247,-46.751214070160025,bebes,55.0,1158.0,2.0,400.0,30.0,10.0,30.0,9350,maua,SP,-23.68011442853022,-46.4524537436668
576560b37e7f23e3dfc9d154b23bc614,a5129a7fe7dfdade527c8787705421e5,delivered,1496676652,1496677340,1496827956,1496939554,1497830400,1,a298a105818dce6878b787e4af6cff7d,e26901d5ab434ce92fd9b5c256820a4e,1497022940,79.9,7.81,1,credit_card,4,87.71,c023df3388015428911bdac7f03253b1,4,1496966400,1497276848,548315a289f7a389b9a7ff373e13004c,3448,sao paulo,SP,-23.553269664723874,-46.52063010935424,bebes,55.0,1158.0,2.0,400.0,30.0,10.0,30.0,9350,maua,SP,-23.68011442853022,-46.4524537436668
295ad751198b4f1a2651400773795227,094c6b161507d7a620db1174dd826493,delivered,1501163633,1501164315,1501250821,1501701733,1502409600,1,a298a105818dce6878b787e4af6cff7d,e26901d5ab434ce92fd9b5c256820a4e,1501682715,79.9,7.81,1,credit_card,4,87.71,0163abd2c1f21f5a8a339e64aaee5abe,5,1501718400,1501849631,4c3ba6b513e65e73c9186aca5e29fefe,18111,votorantim,SP,-23.537564276992306,-47.434600536066796,bebes,55.0,1158.0,2.0,400.0,30.0,10.0,30.0,9350,maua,SP,-23.68011442853022,-46.4524537436668
dace50b472dbb4c65b72b71fc8f60c86,83d4c5cf09b56f567aea4fabe8fa14ec,delivered,1497480311,1497480916,1497623638,1498747062,1498608000,1,a298a105818dce6878b787e4af6cff7d,e26901d5ab434ce92fd9b5c256820a4e,1497999316,79.9,7.81,1,credit_card,3,87.71,fe0fc248b83f8c834bb072a579d3129d,5,1498780800,1499003211,fa21158fe5fb199c6fd8c58d7ffcc04b,3814,sao paulo,SP,-23.48776758090484,-46.47966343450283,bebes,55.0,1158.0,2.0,400.0,30.0,10.0,30.0,9350,maua,SP,-23.68011442853022,-46.4524537436668
7b9f5e24a87d548effb470329e3705ea,fccae75f93f9d98d7be1e1c36a0820a7,delivered,1499377612,1499395420,1499705573,1499801393,1500422400,1,a298a105818dce6878b787e4af6cff7d,e26901d5ab434ce92fd9b5c256820a4e,1499913820,79.9,7.81,1,boleto,1,87.71,84ae25c6042428f63483d6a4a69d1796,3,1499817600,1500080567,196c621766aab9501b0d5509767adc39,3275,sao paulo,SP,-23.58620844962204,-46.535891443101185,bebes,55.0,1158.0,2.0,400.0,30.0,10.0,30.0,9350,maua,SP,-23.68011442853022,-46.4524537436668
dd2be9f213e992cb42d67cb32952f8f0,270707bf3e3bdd048a46f53ec68a6a67,delivered,1496618304,1496756564,1496827948,1497857588,1498780800,1,a298a105818dce6878b787e4af6cff7d,e26901d5ab434ce92fd9b5c256820a4e,1497274911,79.9,15.31,1,boleto,1,95.21,69d7b589e475af574b781f5895ca94f2,4,1497916800,1498003897,857bdf6d9519afff41ab36213a880fc7,95990,ilopolis,RS,-28.93032234179318,-52.126217270913365,bebes,55.0,1158.0,2.0,400.0,30.0,10.0,30.0,9350,maua,SP,-23.68011442853022,-46.4524537436668
d2feb2f430d7d97b41873672953fe944,e771c277cf012c1eb07d5986a5409137,canceled,1502900131,1503022563,-9223372036,-9223372036,1503964800,1,a298a105818dce6878b787e4af6cff7d,e26901d5ab434ce92fd9b5c256820a4e,1503540963,79.9,7.81,1,boleto,1,87.71,5fc891a01bff62b873bcf6cf2e2375bb,1,1504310400,1504528188,63886f940a92212edba1ced79bd6b0e5,8381,sao paulo,SP,-23.605867425471807,-46.43376271204341,bebes,55.0,1158.0,2.0,400.0,30.0,10.0,30.0,9350,maua,SP,-23.68011442853022,-46.4524537436668
867323864f390e786132fb596893b398,365ea489aa1e81ee23c0a26c918cecb3,delivered,1499374538,1499375113,1499705277,1501183298,1501545600,1,a298a105818dce6878b787e4af6cff7d,e26901d5ab434ce92fd9b5c256820a4e,1499893513,79.9,14.31,1,credit_card,9,94.21,fc27a4442a7e94f87a1e8b35d10a2cdc,5,1501200000,1501511697,e226f1eb3c1567ca3924ac574f7250ba,71918,brasilia,DF,-15.837191999999995,-48.03224624999999,bebes,55.0,1158.0,2.0,400.0,30.0,10.0,30.0,9350,maua,SP,-23.68011442853022,-46.4524537436668
aa9df3f4f57834f6997ff9c958411ce3,c1b779122d300719d8b8462a6e8d566d,delivered,1500491198,1500491714,1500911873,1501062238,1501545600,1,a298a105818dce6878b787e4af6cff7d,e26901d5ab434ce92fd9b5c256820a4e,1501010114,79.9,7.81,1,credit_card,1,87.71,cf15dd8084001fabedc71d1b6f78365a,4,1501027200,1501111826,7d1e984a4531da606a7a8defa2605656,3337,sao paulo,SP,-23.55616930834864,-46.56480496252298,bebes,55.0,1158.0,2.0,400.0,30.0,10.0,30.0,9350,maua,SP,-23.68011442853022,-46.4524537436668
66bb146968e449c413c58a15e510a6f8,2bc0454ee694c469f555e42dd18d0513,delivered,1494283812,1494284560,1494324835,1494837125,1496188800,1,a298a105818dce6878b787e4af6cff7d,e26901d5ab434ce92fd9b5c256820a4e,1494802960,79.9,15.31,1,credit_card,3,95.21,2d5b72afe0d5177daa806377e88f21bd,4,1494892800,1495411825,c1f2411f3a94d041eaf2c143af3498e9,84264,telemaco borba,PR,-24.34816326016329,-50.61341818701547,bebes,55.0,1158.0,2.0,400.0,30.0,10.0,30.0,9350,maua,SP,-23.68011442853022,-46.4524537436668
6eb9f3d505ab7a74d384c6b0acf7d57e,4d92a3b7a734fdf21d16feba6dbdd95e,delivered,1495291325,1495292108,1495448217,1495543350,1496361600,1,a298a105818dce6878b787e4af6cff7d,e26901d5ab434ce92fd9b5c256820a4e,1495724108,79.9,7.81,1,credit_card,1,87.71,c78458b071eb2047bb76688409afbf5f,5,1495584000,1495714654,364cb4f2a41aa84eb36090a25f26060c,1218,sao paulo,SP,-23.53154468082404,-46.650668668330546,bebes,55.0,1158.0,2.0,400.0,30.0,10.0,30.0,9350,maua,SP,-23.68011442853022,-46.4524537436668
ca43290a13163a41f1a14fd9728a8b64,a4c9ff14ae7620126461ca55f36a76ea,delivered,1493205568,1493206210,1493370851,1494415554,1495497600,1,a298a105818dce6878b787e4af6cff7d,e26901d5ab434ce92fd9b5c256820a4e,1493811010,79.9,17.99,1,credit_card,1,97.89,b0d52d922b8452965833267ba3c0cb93,5,1494460800,1494551560,e9ab8fd8ea96c85be2714c7f573fb7cd,74330,goiania,GO,-16.74549420425504,-49.34013300000001,bebes,55.0,1158.0,2.0,400.0,30.0,10.0,30.0,9350,maua,SP,-23.68011442853022,-46.4524537436668
7a7b483764d06e139986cfbb2f2ad776,fb207c2acbbfce1b72734a98756e49ce,delivered,1497346276,1497407124,1497625081,1498214631,1499126400,1,a298a105818dce6878b787e4af6cff7d,e26901d5ab434ce92fd9b5c256820a4e,1497925524,79.9,12.06,1,boleto,1,91.96,2a89d122c228d94620de5c3d7e93e560,5,1498262400,1499118536,e28632b699506a6c5e9795e4003a9fbc,18114,votorantim,SP,-23.545916361359602,-47.437860453084475,bebes,55.0,1158.0,2.0,400.0,30.0,10.0,30.0,9350,maua,SP,-23.68011442853022,-46.4524537436668
16199536457f2466f82bcf8caa590657,c22bfdfb53e8b78e4e8f250920aaeabc,delivered,1493631606,1493632218,1493898773,1494250675,1495497600,1,a298a105818dce6878b787e4af6cff7d,e26901d5ab434ce92fd9b5c256820a4e,1493977818,79.9,11.17,1,credit_card,1,91.07,655ac7ac8e8935a3ad0e643ac4b7cde0,5,1494288000,1494556098,db8f6f7ec850e5dff109a6ba20988b22,4660,sao paulo,SP,-23.67605454870451,-46.679325825292814,bebes,55.0,1158.0,2.0,400.0,30.0,10.0,30.0,9350,maua,SP,-23.68011442853022,-46.4524537436668
d56d253bb8a09c81d1ab1cfb6a03813a,5bad07c53c54680af75b95f32498278b,delivered,1495400749,1495511114,1495618467,1496640840,1498089600,1,a298a105818dce6878b787e4af6cff7d,e26901d5ab434ce92fd9b5c256820a4e,1496029514,79.9,34.36,1,boleto,1,114.26,3e7534f37eadedce975fd2e4287c4af4,5,1496707200,1496801931,39c0f2181d8dbc8d1c1f99bd15d161bc,57970,novo lino,AL,-8.942353305175724,-35.662136851953136,bebes,55.0,1158.0,2.0,400.0,30.0,10.0,30.0,9350,maua,SP,-23.68011442853022,-46.4524537436668
06e72b5b111756079f63cf67445db61a,53ef809f78767b14e4f1a711a1b13d0e,delivered,1497818250,1497819308,1497974927,1498146171,1498780800,1,1b0e39ec889889ea1d492603d8512bfb,e26901d5ab434ce92fd9b5c256820a4e,1498164908,39.9,8.72,1,credit_card,1,48.62,1f091c41c2b044a2d158a2dd1cb0bd24,4,1498176000,1498340950,01d0f02781924f788fd9d0521663fae0,13145,paulinia,SP,-22.733060605603352,-47.17829082930352,,,,,400.0,35.0,30.0,20.0,9350,maua,SP,-23.68011442853022,-46.4524537436668
03dd7d68a345c4fb5061f35f29ad959a,d107a7ac2cb11a52b6e269d277c17652,delivered,1497525283,1497526214,1497623270,1498141012,1499644800,1,1b0e39ec889889ea1d492603d8512bfb,e26901d5ab434ce92fd9b5c256820a4e,1498044614,39.9,15.1,1,credit_card,1,55.0,12427be2474f61dc6a228b14d021fbce,5,1498176000,1498400322,fd28ec404b65abf3e0ae6245d79948f0,86020,londrina,PR,-23.30663451154119,-51.16454999999999,,,,,400.0,35.0,30.0,20.0,9350,maua,SP,-23.68011442853022,-46.4524537436668
cd9ef363164449df0bf374f87fa1b1de,b5465de2043513d45163ffec2620e4bf,delivered,1495470575,1495471517,1495692799,1495806224,1497312000,1,1b0e39ec889889ea1d492603d8512bfb,e26901d5ab434ce92fd9b5c256820a4e,1495817117,32.9,9.06,1,credit_card,1,64.99,3788b6c6c32209d6884e4a6b063e43ff,5,1495843200,1495989035,c55ad9a8c04e8009e4ac169f7344a583,4332,sao paulo,SP,-23.660634268942232,-46.64918209631252,,,,,400.0,35.0,30.0,20.0,9350,maua,SP,-23.68011442853022,-46.4524537436668
b5caac3d864a0915203a1789e69329b3,c9347dc84f33e68dee8155d73757b001,delivered,1495752059,1495854912,1496048312,1496334297,1497830400,1,1b0e39ec889889ea1d492603d8512bfb,e26901d5ab434ce92fd9b5c256820a4e,1496286912,32.9,14.1,1,boleto,1,47.0,1848a3a1525901abbf4c05b11eee0523,5,1496361600,1496718915,6c4bedeb8b1f3d285808dd5ea5dfc120,20521,rio de janeiro,RJ,-22.92505850706913,-43.230232813203365,,,,,400.0,35.0,30.0,20.0,9350,maua,SP,-23.68011442853022,-46.4524537436668
1c32916fec4ddbdf533e164c2552343f,b22268461b6f04a95733c44174586458,delivered,1494885146,1494885921,1495115270,1495564142,1495756800,1,1b0e39ec889889ea1d492603d8512bfb,e26901d5ab434ce92fd9b5c256820a4e,1495404321,32.9,8.72,1,credit_card,1,41.62,b6ac4af0cf4c5224fd95db3e6fddb2e8,3,1495670400,1495701970,137e5e89cc2ec6ee305e6242ef3fa4c2,13209,jundiai,SP,-23.17965058485729,-46.905763528622295,,,,,400.0,35.0,30.0,20.0,9350,maua,SP,-23.68011442853022,-46.4524537436668
2fb621412f0b757f03ffbb0c47400917,13b36e4dea15139813987e88cf7ed34d,delivered,1492863056,1492863922,1493023599,1495952976,1494806400,1,1b0e39ec889889ea1d492603d8512bfb,e26901d5ab434ce92fd9b5c256820a4e,1493295922,32.9,14.52,1,credit_card,1,47.42,5eabdad0148c11a0e3267f940247abe9,2,1494979200,1495060806,a3bf5edb6dff641e32059b4a873f4bfa,88070,florianopolis,SC,-27.58657286234056,-48.57881368067979,,,,,400.0,35.0,30.0,20.0,9350,maua,SP,-23.68011442853022,-46.4524537436668
49c0586d77735f8fdc96c83dd76ac808,c0fe20e105ef2b292a69762bcdd42308,delivered,1494375677,1494379542,1494505719,1494607680,1495065600,1,1b0e39ec889889ea1d492603d8512bfb,e26901d5ab434ce92fd9b5c256820a4e,1494894688,32.9,8.72,1,credit_card,2,41.62,ca4c057403bd7bf97e81ec0041ad8948,5,1494633600,1494760269,57a9298f4d37c4d86dcc49c1374be81f,5303,sao paulo,SP,-23.526508568411355,-46.73170278267646,,,,,400.0,35.0,30.0,20.0,9350,maua,SP,-23.68011442853022,-46.4524537436668
0e75e6ce3e632eb1473af3854f583029,1b222a0f1414bd06b17256aebafaa498,delivered,1493028856,1493202860,1493370851,1493732828,1494806400,1,1b0e39ec889889ea1d492603d8512bfb,e26901d5ab434ce92fd9b5c256820a4e,1493807660,32.9,14.52,1,credit_card,3,47.42,66324736353b079d49b880c214c7f425,5,1493769600,1493907386,f398130a46d78d120674c62552f3922d,31260,belo horizonte,MG,-19.86716607218064,-43.93513434043602,,,,,400.0,35.0,30.0,20.0,9350,maua,SP,-23.68011442853022,-46.4524537436668
8d8ab471d725805f57571b24aaf78b8f,7fda493f747b5ced48e6f6851c22b21e,delivered,1493314600,1493315123,1493370854,1494593270,1496707200,1,1b0e39ec889889ea1d492603d8512bfb,e26901d5ab434ce92fd9b5c256820a4e,1493919923,32.9,20.8,1,credit_card,5,53.7,18532a3b0b3fca3deae212db17591de6,4,1494633600,1494866846,fb88ebab2021f2706997dbf98a6790f5,78300,tangara da serra,MT,-14.626259297036647,-57.49943277213334,,,,,400.0,35.0,30.0,20.0,9350,maua,SP,-23.68011442853022,-46.4524537436668
dbe715996d171c4b2877daa01c0d6aca,cab77812cc7fd13299f17d2c04b88654,delivered,1494778398,1494905126,1495119984,1495549167,1496707200,1,1b0e39ec889889ea1d492603d8512bfb,e26901d5ab434ce92fd9b5c256820a4e,1495423526,32.9,15.1,1,boleto,1,48.0,abdec07c8be0483f36a2240ff1f3bf44,4,1495584000,1495710171,367a6fabffa39e72823a2a2c836a89ff,95330,veranopolis,RS,-28.935745148342484,-51.552047623489244,,,,,400.0,35.0,30.0,20.0,9350,maua,SP,-23.68011442853022,-46.4524537436668
44ce4717fa02c8f0fb032b88cf45b8a3,52cb889b339c853bb6476e5601de2e58,delivered,1495838077,1495839014,1496048312,1496334298,1497916800,1,1b0e39ec889889ea1d492603d8512bfb,e26901d5ab434ce92fd9b5c256820a4e,1496271014,39.9,14.1,1,credit_card,1,54.0,2eab4b6fd154e0d2de89b3977822f3ce,5,1496361600,1496458613,4f034a3aadb89d23a7ac701def40bdbc,20530,rio de janeiro,RJ,-22.94623547680205,-43.25548301751381,,,,,400.0,35.0,30.0,20.0,9350,maua,SP,-23.68011442853022,-46.4524537436668
13b81a1e19dd22ce11a49e06b77a2b28,529d7b05ef37cabe2210c85097858b14,delivered,1493718819,1493719351,1493898773,1494257935,1495670400,1,1b0e39ec889889ea1d492603d8512bfb,e26901d5ab434ce92fd9b5c256820a4e,1494237751,32.9,14.52,1,credit_card,1,47.42,669bbf8d352ca8add7be6b951d17c5e0,1,1494288000,1494587139,c4bbe35ff5cb5a2d70cb00dfe6b68527,32678,betim,MG,-19.931357672407387,-44.101489144763185,,,,,400.0,35.0,30.0,20.0,9350,maua,SP,-23.68011442853022,-46.4524537436668
d799d9179d71dbb119be4733fa817085,2ec3c08e30b58b6ecb63f16a7e3d9802,delivered,1495289800,1495290621,1495448217,1495628027,1496361600,1,1b0e39ec889889ea1d492603d8512bfb,e26901d5ab434ce92fd9b5c256820a4e,1495722621,32.9,8.72,1,credit_card,4,83.24,77c45a3dec67bab7fc5548f91e47e39b,4,1495670400,1495811596,4787c0603659db901f2b746f0fd77f1d,1135,sao paulo,SP,-23.521221031363613,-46.652962934502824,,,,,400.0,35.0,30.0,20.0,9350,maua,SP,-23.68011442853022,-46.4524537436668
d799d9179d71dbb119be4733fa817085,2ec3c08e30b58b6ecb63f16a7e3d9802,delivered,1495289800,1495290621,1495448217,1495628027,1496361600,2,1b0e39ec889889ea1d492603d8512bfb,e26901d5ab434ce92fd9b5c256820a4e,1495722621,32.9,8.72,1,credit_card,4,83.24,77c45a3dec67bab7fc5548f91e47e39b,4,1495670400,1495811596,4787c0603659db901f2b746f0fd77f1d,1135,sao paulo,SP,-23.521221031363613,-46.652962934502824,,,,,400.0,35.0,30.0,20.0,9350,maua,SP,-23.68011442853022,-46.4524537436668
e8dcb5c19d58dc860f2c4a1594dff6b3,dccfc93e5f94a64f1f325e322b64844d,delivered,1492818222,1492823710,1493023595,1493722559,1494979200,1,1b0e39ec889889ea1d492603d8512bfb,e26901d5ab434ce92fd9b5c256820a4e,1493255710,32.9,16.05,1,credit_card,4,48.95,d25ba822c38ba471bc6f4b3c0e5926c2,4,1493769600,1495075348,992ffc60b1925f3020d35b6fdee40a2b,73062,brasilia,DF,-15.641438073151596,-47.82359123089236,,,,,400.0,35.0,30.0,20.0,9350,maua,SP,-23.68011442853022,-46.4524537436668
39e9813f11fbc948f71cfaf189976662,355474d121f6ea4623bbf34bbe80739b,delivered,1493026646,1493199479,1493370845,1494533808,1494892800,1,0bb7cb61f1957f79dac582ab66ccdc1f,e26901d5ab434ce92fd9b5c256820a4e,1493864122,23.9,14.52,1,boleto,1,38.42,f2f6f8f47876263a9a77c1428f09c23c,5,1494547200,1495712959,68ba0fa3c02bfada4ebd0f37d1aee37f,88302,itajai,SC,-26.92017192429773,-48.65785233328224,utilidades_domesticas,45.0,561.0,2.0,553.0,18.0,9.0,15.0,9350,maua,SP,-23.68011442853022,-46.4524537436668
9c44c2473c988578b5188baf89c3e429,dd48464b22b941c1717e9b3e53ccddab,delivered,1496337511,1496385321,1496395166,1497026386,1498521600,1,0bb7cb61f1957f79dac582ab66ccdc1f,e26901d5ab434ce92fd9b5c256820a4e,1496990121,23.9,15.1,1,boleto,1,39.0,5189d6ca49005f1c9581b21e3ddd0c98,5,1497052800,1497287829,5da36249e10fba23041f7353250b644c,88330,balneario camboriu,SC,-26.999696999999948,-48.63513949999995,utilidades_domesticas,45.0,561.0,2.0,553.0,18.0,9.0,15.0,9350,maua,SP,-23.68011442853022,-46.4524537436668
65320cb291f4cacd8b0114a29eafa4c7,28802391b537abb352ee02f689cc7abc,delivered,1495651145,1495652117,1495792770,1496067113,1496793600,1,0bb7cb61f1957f79dac582ab66ccdc1f,e26901d5ab434ce92fd9b5c256820a4e,1496256917,23.9,8.72,1,credit_card,3,34.89,75aec1822c64372e54e2ace5aef37553,3,1496102400,1496185699,41fca1fccfc3da172a2fc165122218a5,13175,sumare,SP,-22.811418577663336,-47.24177202124911,utilidades_domesticas,45.0,561.0,2.0,553.0,18.0,9.0,15.0,9350,maua,SP,-23.68011442853022,-46.4524537436668
0756fac8c4aef0446002871923cc6b8f,954044bfd6fb537969f65fb21750ae1d,delivered,1494264422,1494264912,1494324835,1494843164,1496275200,1,0bb7cb61f1957f79dac582ab66ccdc1f,e26901d5ab434ce92fd9b5c256820a4e,1494869712,23.9,14.1,1,credit_card,2,38.0,e50e9378ef58d8427072defebfa36491,5,1494892800,1495007560,fa74ed50f1a843f0316b5c75666b076e,20271,rio de janeiro,RJ,-22.94391056014081,-43.25477299399253,utilidades_domesticas,45.0,561.0,2.0,553.0,18.0,9.0,15.0,9350,maua,SP,-23.68011442853022,-46.4524537436668
674156fdc5d457a8a102110b27e89e07,1be6ae39f964ccce9e37a8c7f01dad8c,delivered,1491580189,1491580972,1491814883,1492504530,1493683200,1,0bb7cb61f1957f79dac582ab66ccdc1f,e26901d5ab434ce92fd9b5c256820a4e,1492185772,23.9,10.96,1,credit_card,3,34.86,4ad79f5948e31b83ba7e27dae95d0a22,5,1492560000,1492717435,1ded33854a42ea16167f3adfbb7ed068,13184,hortolandia,SP,-22.862988204938606,-47.218246172499526,utilidades_domesticas,45.0,561.0,2.0,553.0,18.0,9.0,15.0,9350,maua,SP,-23.68011442853022,-46.4524537436668
a0170b15707b42bf994d5b717e4ce049,e23af768cf7b2b9a24aa290250301b10,delivered,1501792109,1501794017,1502137017,1502909863,1504051200,1,0bb7cb61f1957f79dac582ab66ccdc1f,e26901d5ab434ce92fd9b5c256820a4e,1502398817,23.9,15.11,1,credit_card,1,39.01,1229ff30064ee53c0924a3d776e35aba,5,1502928000,1503015752,320ee367bee05caaaaa4dadd92ad4610,90650,porto alegre,RS,-30.06177937996993,-51.170740679987325,utilidades_domesticas,45.0,561.0,2.0,553.0,18.0,9.0,15.0,9350,maua,SP,-23.68011442853022,-46.4524537436668
c918c3225cd5d12cacf8c7e54e9444c5,6792b0ebecf141d45746d320bed0d951,delivered,1503431016,1503456935,1503499443,1503616960,1504569600,1,0bb7cb61f1957f79dac582ab66ccdc1f,e26901d5ab434ce92fd9b5c256820a4e,1504061735,23.9,9.34,1,boleto,1,33.24,43e31a43c3e7156e5fc74a6724391cd8,3,1503619200,1503919206,dac404dd8c3d5be7de58c20a8f9bcf4a,4619,sao paulo,SP,-23.627638728836065,-46.67274389217496,utilidades_domesticas,45.0,561.0,2.0,553.0,18.0,9.0,15.0,9350,maua,SP,-23.68011442853022,-46.4524537436668
03d409e5b5b19ae88c43b41b503fdc5f,f1a3c6f8513df212602449fa07d582fa,delivered,1504543754,1504666529,1504722840,1504892206,1505692800,1,0bb7cb61f1957f79dac582ab66ccdc1f,e26901d5ab434ce92fd9b5c256820a4e,1505357729,23.9,9.34,1,boleto,1,33.24,154ec7c14c74a74b47e049257fae71d1,5,1504915200,1509196034,c15854d47adb3113dc35ae6559d4c57d,12900,braganca paulista,SP,-22.956690604218373,-46.540872487506505,utilidades_domesticas,45.0,561.0,2.0,553.0,18.0,9.0,15.0,9350,maua,SP,-23.68011442853022,-46.4524537436668
b9df3ba1cd5cd93a66fa5f902ab0dbc5,bd6d5bb0762574fcf0102668be4f781c,delivered,1493993612,1493994324,1494317927,1494862899,1496188800,1,0bb7cb61f1957f79dac582ab66ccdc1f,e26901d5ab434ce92fd9b5c256820a4e,1494599124,23.9,14.52,1,credit_card,1,38.42,a5639483a41a4a4b6b7b095a34418eac,1,1494892800,1495052962,3402f0b7180d733ed9a7a779df26df9b,22220,rio de janeiro,RJ,-22.93311463835192,-43.17537798542904,utilidades_domesticas,45.0,561.0,2.0,553.0,18.0,9.0,15.0,9350,maua,SP,-23.68011442853022,-46.4524537436668
a556af28fe6f1e8804087924fdced810,eba04ee856b162cbb63d97476cde1726,delivered,1502992820,1502995820,1503316649,1503604672,1504828800,1,0bb7cb61f1957f79dac582ab66ccdc1f,e26901d5ab434ce92fd9b5c256820a4e,1503600620,23.9,12.69,1,credit_card,1,36.59,75b3a592b95374b975c7fa5fa0a39439,3,1503619200,1503899970,8ebb724a0718896eaa6e09a3d7a73f90,13490,cordeiropolis,SP,-22.47209221623169,-47.459789454545096,utilidades_domesticas,45.0,561.0,2.0,553.0,18.0,9.0,15.0,9350,maua,SP,-23.68011442853022,-46.4524537436668
6a3d17234ba4b82167e2b8d9a6ca6602,c7c8e04c15ed45ef8fcfdb5beae1ad2d,delivered,1493835978,1494286385,1494324835,1494498427,1495670400,1,0bb7cb61f1957f79dac582ab66ccdc1f,e26901d5ab434ce92fd9b5c256820a4e,1494840756,23.9,10.96,1,boleto,1,34.86,806880552338967d8e448bb818f5e3bb,4,1494892800,1495105191,cefbbb1124978910bb96634fb9fef97c,2422,sao paulo,SP,-23.47001485567546,-46.63484579309249,utilidades_domesticas,45.0,561.0,2.0,553.0,18.0,9.0,15.0,9350,maua,SP,-23.68011442853022,-46.4524537436668
ebe70675ae793b444779a82a58b30e91,da49aa85426b211073305504a48cdb26,delivered,1502038040,1502166274,1502297651,1502537023,1504051200,1,0bb7cb61f1957f79dac582ab66ccdc1f,e26901d5ab434ce92fd9b5c256820a4e,1502771074,23.9,16.11,1,boleto,1,40.01,64acfa46d06c53052d3673c65d07c8f5,5,1502582400,1502640225,8f12f030157bb64fad548e0c906034ed,38405,uberlandia,MG,-18.88799909186912,-48.26001463266778,utilidades_domesticas,45.0,561.0,2.0,553.0,18.0,9.0,15.0,9350,maua,SP,-23.68011442853022,-46.4524537436668
5923d27ea800706e7c11665595951851,bb994f5e181a796ea6ec46a53c7f6928,delivered,1500558891,1500559524,1500910785,1501175756,1502841600,1,0bb7cb61f1957f79dac582ab66ccdc1f,e26901d5ab434ce92fd9b5c256820a4e,1501164324,23.9,16.11,1,credit_card,1,40.01,48850edb46a0694d7d247c7c77342deb,4,1501200000,1501708505,9e92aa47e2314278334cdcf672cb3810,99010,passo fundo,RS,-28.246010663976694,-52.383568414817034,utilidades_domesticas,45.0,561.0,2.0,553.0,18.0,9.0,15.0,9350,maua,SP,-23.68011442853022,-46.4524537436668
80def445474889abc909592113f0027a,06e07d9f20157eac3086f8e27b8799bd,delivered,1495730308,1495731014,1495792769,1496070544,1498089600,1,0bb7cb61f1957f79dac582ab66ccdc1f,e26901d5ab434ce92fd9b5c256820a4e,1496335814,23.9,14.1,1,credit_card,1,38.0,61c9e4ffc493dbd7d97e0f67a0cac697,1,1496102400,1497471028,de10c6eddfb671ca75cdf673e3d3ab47,90200,porto alegre,RS,-29.98554701359,-51.16286896947312,utilidades_domesticas,45.0,561.0,2.0,553.0,18.0,9.0,15.0,9350,maua,SP,-23.68011442853022,-46.4524537436668
9783d3dd1819fa6e14a26427b1989137,e79d2e40f41f804d567988796efc3c59,delivered,1499944991,1499945708,1500049373,1500407621,1502236800,1,0bb7cb61f1957f79dac582ab66ccdc1f,e26901d5ab434ce92fd9b5c256820a4e,1500550508,23.9,16.11,1,credit_card,4,40.01,07b492aad4e5f806f87f1fc8bf30d03a,4,1500422400,1500655006,c93c37c8d9779348bd164f7d605969d8,97800,sao luiz gonzaga,RS,-28.41239104550744,-54.96008333012875,utilidades_domesticas,45.0,561.0,2.0,553.0,18.0,9.0,15.0,9350,maua,SP,-23.68011442853022,-46.4524537436668
eab2a4679330df9f5a75c9864461857b,123ea921911488038083321655563493,delivered,1497302107,1497302728,1497433992,1497529683,1498521600,1,0bb7cb61f1957f79dac582ab66ccdc1f,e26901d5ab434ce92fd9b5c256820a4e,1497907528,23.9,9.34,1,credit_card,3,66.48,9659bd44cb23ec49038865d6b6c25896,5,1497571200,1497654869,9f075d1dd41ea5487577d578521d8f77,5083,sao paulo,SP,-23.53200228781236,-46.719049405909175,utilidades_domesticas,45.0,561.0,2.0,553.0,18.0,9.0,15.0,9350,maua,SP,-23.68011442853022,-46.4524537436668
eab2a4679330df9f5a75c9864461857b,123ea921911488038083321655563493,delivered,1497302107,1497302728,1497433992,1497529683,1498521600,2,0bb7cb61f1957f79dac582ab66ccdc1f,e26901d5ab434ce92fd9b5c256820a4e,1497907528,23.9,9.34,1,credit_card,3,66.48,9659bd44cb23ec49038865d6b6c25896,5,1497571200,1497654869,9f075d1dd41ea5487577d578521d8f77,5083,sao paulo,SP,-23.53200228781236,-46.719049405909175,utilidades_domesticas,45.0,561.0,2.0,553.0,18.0,9.0,15.0,9350,maua,SP,-23.68011442853022,-46.4524537436668
f84774cb3dcbf3aa3ce51aa77d0f5ddd,60ce2ffc10359a9d9bbbf106440230de,delivered,1497187541,1497188119,1497435000,1497883943,1499299200,1,0bb7cb61f1957f79dac582ab66ccdc1f,e26901d5ab434ce92fd9b5c256820a4e,1497620119,23.9,16.11,1,credit_card,1,40.01,c4d8c2a05d803dc91f5d8756023f7ee7,4,1497916800,1498004981,b19113a45e82b57d787148be17eb9bf2,89135,apiuna,SC,-27.10428599999995,-49.37637049999997,utilidades_domesticas,45.0,561.0,2.0,553.0,18.0,9.0,15.0,9350,maua,SP,-23.68011442853022,-46.4524537436668
b40cc33d658c4e802526de2bf8a56d43,3f1ad472702103c94ec12bf58592d772,delivered,1500304321,1500358537,1500646179,1501268147,1502236800,1,0bb7cb61f1957f79dac582ab66ccdc1f,e26901d5ab434ce92fd9b5c256820a4e,1500963337,23.9,15.11,1,boleto,1,39.01,ada327898b508738fab836be801ae35b,2,1501286400,1501545040,515e76331fae8d3ab3d873bbbc890cc2,20030,rio de janeiro,RJ,-22.908639793496512,-43.17401201249347,utilidades_domesticas,45.0,561.0,2.0,553.0,18.0,9.0,15.0,9350,maua,SP,-23.68011442853022,-46.4524537436668
7d892708f2153d1763c61337cf6ba495,5a2e36e29494ce0f03e22c7f28df6617,delivered,1498209790,1498271115,1498557864,1499155451,1500508800,1,0bb7cb61f1957f79dac582ab66ccdc1f,e26901d5ab434ce92fd9b5c256820a4e,1498789515,23.9,16.11,1,boleto,1,120.03,912a7c11cc111eb067f9e4e3fcd6b1bf,4,1499212800,1499445453,620ad450a89bab5e7ec65b56a4e43404,97070,santa maria,RS,-29.71767393533955,-53.81885346932888,utilidades_domesticas,45.0,561.0,2.0,553.0,18.0,9.0,15.0,9350,maua,SP,-23.68011442853022,-46.4524537436668
7d892708f2153d1763c61337cf6ba495,5a2e36e29494ce0f03e22c7f28df6617,delivered,1498209790,1498271115,1498557864,1499155451,1500508800,2,0bb7cb61f1957f79dac582ab66ccdc1f,e26901d5ab434ce92fd9b5c256820a4e,1498789515,23.9,16.11,1,boleto,1,120.03,912a7c11cc111eb067f9e4e3fcd6b1bf,4,1499212800,1499445453,620ad450a89bab5e7ec65b56a4e43404,97070,santa maria,RS,-29.71767393533955,-53.81885346932888,utilidades_domesticas,45.0,561.0,2.0,553.0,18.0,9.0,15.0,9350,maua,SP,-23.68011442853022,-46.4524537436668
7d892708f2153d1763c61337cf6ba495,5a2e36e29494ce0f03e22c7f28df6617,delivered,1498209790,1498271115,1498557864,1499155451,1500508800,3,0bb7cb61f1957f79dac582ab66ccdc1f,e26901d5ab434ce92fd9b5c256820a4e,1498789515,23.9,16.11,1,boleto,1,120.03,912a7c11cc111eb067f9e4e3fcd6b1bf,4,1499212800,1499445453,620ad450a89bab5e7ec65b56a4e43404,97070,santa maria,RS,-29.71767393533955,-53.81885346932888,utilidades_domesticas,45.0,561.0,2.0,553.0,18.0,9.0,15.0,9350,maua,SP,-23.68011442853022,-46.4524537436668
5f9b8704ad096052823d6e006cf03443,9435f264913e96d69160e6f90380c851,delivered,1502856840,1502943006,1503316650,1503590611,1504051200,1,0bb7cb61f1957f79dac582ab66ccdc1f,e26901d5ab434ce92fd9b5c256820a4e,1503547806,23.9,9.34,1,credit_card,1,66.48,d31b485b06e85ee916eb71d4958ae3a3,1,1503619200,1503985052,405565b9106ccb1e32ab1c2b023b9e21,8461,sao paulo,SP,-23.555867731057763,-46.40379079961334,utilidades_domesticas,45.0,561.0,2.0,553.0,18.0,9.0,15.0,9350,maua,SP,-23.68011442853022,-46.4524537436668
5f9b8704ad096052823d6e006cf03443,9435f264913e96d69160e6f90380c851,delivered,1502856840,1502943006,1503316650,1503590611,1504051200,2,0bb7cb61f1957f79dac582ab66ccdc1f,e26901d5ab434ce92fd9b5c256820a4e,1503547806,23.9,9.34,1,credit_card,1,66.48,d31b485b06e85ee916eb71d4958ae3a3,1,1503619200,1503985052,405565b9106ccb1e32ab1c2b023b9e21,8461,sao paulo,SP,-23.555867731057763,-46.40379079961334,utilidades_domesticas,45.0,561.0,2.0,553.0,18.0,9.0,15.0,9350,maua,SP,-23.68011442853022,-46.4524537436668
d790743eff8a57ec6b1bd64865b8c60f,81cebdbc72fc17d808b85df49b9d52cb,delivered,1498433310,1498433717,1498719297,1499188429,1500422400,1,0bb7cb61f1957f79dac582ab66ccdc1f,e26901d5ab434ce92fd9b5c256820a4e,1499038517,23.9,15.11,1,credit_card,3,39.01,e5b36936479799bd9fb1199f437a2544,4,1499212800,1499359058,cc71814df40aa575da92b47730280910,83015,sao jose dos pinhais,PR,-25.562246280050744,-49.17501431181837,utilidades_domesticas,45.0,561.0,2.0,553.0,18.0,9.0,15.0,9350,maua,SP,-23.68011442853022,-46.4524537436668
4f8092f81e74647a7bb441b6577d62b1,72b2dcb1f65360c3a533246ea3502fed,delivered,1494077737,1494323000,1494505715,1495099723,1496620800,1,0bb7cb61f1957f79dac582ab66ccdc1f,e26901d5ab434ce92fd9b5c256820a4e,1494927800,23.9,16.05,1,boleto,1,79.9,573b466f20b5d4fc105781e46024b30d,5,1495152000,1495248946,89c2f7ccdb8ab27ba22df980e678410f,99701,erechim,RS,-27.62915173405655,-52.248574632425616,utilidades_domesticas,45.0,561.0,2.0,553.0,18.0,9.0,15.0,9350,maua,SP,-23.68011442853022,-46.4524537436668
4f8092f81e74647a7bb441b6577d62b1,72b2dcb1f65360c3a533246ea3502fed,delivered,1494077737,1494323000,1494505715,1495099723,1496620800,2,0bb7cb61f1957f79dac582ab66ccdc1f,e26901d5ab434ce92fd9b5c256820a4e,1494927800,23.9,16.05,1,boleto,1,79.9,573b466f20b5d4fc105781e46024b30d,5,1495152000,1495248946,89c2f7ccdb8ab27ba22df980e678410f,99701,erechim,RS,-27.62915173405655,-52.248574632425616,utilidades_domesticas,45.0,561.0,2.0,553.0,18.0,9.0,15.0,9350,maua,SP,-23.68011442853022,-46.4524537436668
99bd1b701f5689d68265a47f0b793d20,178706e9cab0f7d13bb90fbf946269c5,delivered,1501944743,1501945513,1502297478,1502374988,1503273600,1,0bb7cb61f1957f79dac582ab66ccdc1f,e26901d5ab434ce92fd9b5c256820a4e,1502463913,23.9,9.34,1,credit_card,2,33.24,a961f72f8805e9e56ab2def010b6fac9,5,1502409600,1502497417,07f61caa1c9e850c14e94854cec87545,9686,sao bernardo do campo,SP,-23.667205588510274,-46.59270730426241,utilidades_domesticas,45.0,561.0,2.0,553.0,18.0,9.0,15.0,9350,maua,SP,-23.68011442853022,-46.4524537436668
4246497ce0c7f8915544d27745f2e6c7,ec8cbe5ff3ae0f352870c07a3a3025d8,delivered,1500751585,1500752557,1501020991,1501616089,1502755200,1,7b453aa3584d61c1268d77ba6fd5956b,e26901d5ab434ce92fd9b5c256820a4e,1501184557,109.9,20.26,1,credit_card,4,130.16,022570251ac8f09e46357ed0792f14a2,5,1501632000,1501726269,51a59e5535d7248b0995d628d4e159d3,24933,marica,RJ,-22.96974443607173,-42.936905713868704,utilidades_domesticas,57.0,616.0,2.0,3300.0,50.0,30.0,30.0,9350,maua,SP,-23.68011442853022,-46.4524537436668
a7ee6297799ec44536e8b6bd536818b3,c9c5341ba5df460bd6c68935cd969e41,delivered,1496680487,1496681113,1497007358,1497887155,1498608000,1,7b453aa3584d61c1268d77ba6fd5956b,e26901d5ab434ce92fd9b5c256820a4e,1497026713,109.9,14.52,1,credit_card,6,124.42,89074b861049e30d40c078684cc6fe8b,4,1497916800,1498173488,ec70b6cfa4591fd10dbd4d8d4061a349,30240,belo horizonte,MG,-19.92416706994057,-43.9164795066651,utilidades_domesticas,57.0,616.0,2.0,3300.0,50.0,30.0,30.0,9350,maua,SP,-23.68011442853022,-46.4524537436668
651a0587f276ef45b1c74a72643c33ae,8a10e1981f61bb769762ebaa5a10ab0a,delivered,1496847931,1496848512,1497007358,1497895384,1498780800,1,7b453aa3584d61c1268d77ba6fd5956b,e26901d5ab434ce92fd9b5c256820a4e,1497366912,109.9,21.26,1,credit_card,4,131.16,574411bb18ebb05c4f1be1ddb047b633,5,1497916800,1498221138,5995828a9de81dbbf610cc6f27580bcc,39400,montes claros,MG,-16.718833477927223,-43.8691627456287,utilidades_domesticas,57.0,616.0,2.0,3300.0,50.0,30.0,30.0,9350,maua,SP,-23.68011442853022,-46.4524537436668
10631633611fba698054772b43dc118c,087924f653ede8ac260c3d6cec755a4b,delivered,1498140228,1498141378,1498815884,1499449660,1499990400,1,7b453aa3584d61c1268d77ba6fd5956b,e26901d5ab434ce92fd9b5c256820a4e,1498659778,109.9,16.4,1,credit_card,4,252.6,78a7bab7f24ddadee325bb0e7e1d227e,1,1499472000,1499814686,8a11c1f8a6ec66283bdcff8829df7918,37550,pouso alegre,MG,-22.234236622623648,-45.93524204899442,utilidades_domesticas,57.0,616.0,2.0,3300.0,50.0,30.0,30.0,9350,maua,SP,-23.68011442853022,-46.4524537436668
10631633611fba698054772b43dc118c,087924f653ede8ac260c3d6cec755a4b,delivered,1498140228,1498141378,1498815884,1499449660,1499990400,2,7b453aa3584d61c1268d77ba6fd5956b,e26901d5ab434ce92fd9b5c256820a4e,1498659778,109.9,16.4,1,credit_card,4,252.6,78a7bab7f24ddadee325bb0e7e1d227e,1,1499472000,1499814686,8a11c1f8a6ec66283bdcff8829df7918,37550,pouso alegre,MG,-22.234236622623648,-45.93524204899442,utilidades_domesticas,57.0,616.0,2.0,3300.0,50.0,30.0,30.0,9350,maua,SP,-23.68011442853022,-46.4524537436668
bc35165f6ff628a1090f8b0074929de9,0d2234a021135cfc68d38e08f7328544,delivered,1497024348,1497328517,1497434637,1497893088,1499126400,1,7b453aa3584d61c1268d77ba6fd5956b,e26901d5ab434ce92fd9b5c256820a4e,1497846759,109.9,21.26,1,boleto,1,131.16,e042a3c2f9989c2c620175eb5fbc7886,5,1497916800,1498217614,1cadf1dc88bf9e3b2e77d5ee00316668,35365,abre campo,MG,-20.301457499999987,-42.47811225,utilidades_domesticas,57.0,616.0,2.0,3300.0,50.0,30.0,30.0,9350,maua,SP,-23.68011442853022,-46.4524537436668
1810618b56a9acf3df4d8a4945bd909e,e9fceae02eaf49f88a3332048e249b0f,delivered,1501079813,1501080909,1501251122,1501616865,1502928000,1,7b453aa3584d61c1268d77ba6fd5956b,e26901d5ab434ce92fd9b5c256820a4e,1501599309,109.9,20.26,1,credit_card,1,130.16,6f3ffebe8d8c553deecc5a6ae5fdeaaf,4,1501632000,1501769667,0778e245b3a42b38d4cf32b302c17991,81590,curitiba,PR,-25.487698473772287,-49.20338303427781,utilidades_domesticas,57.0,616.0,2.0,3300.0,50.0,30.0,30.0,9350,maua,SP,-23.68011442853022,-46.4524537436668
78cb812cde46e3e06e94affd5ea47012,fde3c24d146f729176c1311e953c9c0d,delivered,1494076094,1494076932,1494314878,1494407146,1496016000,1,7b453aa3584d61c1268d77ba6fd5956b,e26901d5ab434ce92fd9b5c256820a4e,1494508932,109.9,10.96,1,credit_card,10,241.72,7dfe00a024ea7f3d30b3113266c8017b,5,1494460800,1494730209,fb2f1b5cb4a9612511658f7351c25899,13590,dourado,SP,-22.11041683240867,-48.30935219804882,utilidades_domesticas,57.0,616.0,2.0,3300.0,50.0,30.0,30.0,9350,maua,SP,-23.68011442853022,-46.4524537436668
78cb812cde46e3e06e94affd5ea47012,fde3c24d146f729176c1311e953c9c0d,delivered,1494076094,1494076932,1494314878,1494407146,1496016000,2,7b453aa3584d61c1268d77ba6fd5956b,e26901d5ab434ce92fd9b5c256820a4e,1494508932,109.9,10.96,1,credit_card,10,241.72,7dfe00a024ea7f3d30b3113266c8017b,5,1494460800,1494730209,fb2f1b5cb4a9612511658f7351c25899,13590,dourado,SP,-22.11041683240867,-48.30935219804882,utilidades_domesticas,57.0,616.0,2.0,3300.0,50.0,30.0,30.0,9350,maua,SP,-23.68011442853022,-46.4524537436668
1cea424dc965d49b8e61503d53a801bb,a4551f4d139f486420dd1a8bc2b3aff6,delivered,1502101961,1502102604,1502294804,1502452802,1503014400,1,7b453aa3584d61c1268d77ba6fd5956b,e26901d5ab434ce92fd9b5c256820a4e,1502448204,109.9,13.32,1,credit_card,1,123.22,c15bcb39542a12f05b0b1af48a309ca8,5,1502496000,1502724216,100bc0f4c699c756969bdf378c24e903,11431,guaruja,SP,-23.99777832361936,-46.2767638411045,utilidades_domesticas,57.0,616.0,2.0,3300.0,50.0,30.0,30.0,9350,maua,SP,-23.68011442853022,-46.4524537436668
bfea49050a2776e89546f0925b44c4dd,6a8c79d08f5389a8f4cdf918aba549f8,delivered,1494020368,1494021016,1494315486,1494513409,1495756800,1,7b453aa3584d61c1268d77ba6fd5956b,e26901d5ab434ce92fd9b5c256820a4e,1494453016,109.9,10.96,1,credit_card,6,120.86,4d4d0d92e50f18a54c82a8ed0cc5a6c6,5,1494547200,1494985564,ab59bca132e1e8ac2749d632c7904c77,13250,itatiba,SP,-23.005474434298936,-46.84112811740004,utilidades_domesticas,57.0,616.0,2.0,3300.0,50.0,30.0,30.0,9350,maua,SP,-23.68011442853022,-46.4524537436668
e45956d693225b91e3cb777279bce585,d3c49195f47873af8ff680c4bf942c5c,delivered,1500040306,1500041154,1500388719,1501097979,1502064000,1,7b453aa3584d61c1268d77ba6fd5956b,e26901d5ab434ce92fd9b5c256820a4e,1500559554,109.9,21.26,1,credit_card,1,131.16,9b1150b6cac460b795151ba82030b8f5,5,1501113600,1502892810,2cda8c47318d9419bcd27c8fb84ce421,35050,governador valadares,MG,-18.882687501227373,-41.969442150729535,utilidades_domesticas,57.0,616.0,2.0,3300.0,50.0,30.0,30.0,9350,maua,SP,-23.68011442853022,-46.4524537436668
a9d514cec7786e74cf3b22b24b5562f7,632f6a3130e170ad74c54618b0a52fa3,delivered,1494345585,1494346517,1494585587,1495209958,1496016000,1,7b453aa3584d61c1268d77ba6fd5956b,e26901d5ab434ce92fd9b5c256820a4e,1494864917,109.9,15.52,1,credit_card,1,125.42,04b0722f213c50e58e366feffb96a71d,5,1495238400,1495451440,4bf595f17496ac8af412583acad4860b,35183,timoteo,MG,-19.57434579525786,-42.676271612166545,utilidades_domesticas,57.0,616.0,2.0,3300.0,50.0,30.0,30.0,9350,maua,SP,-23.68011442853022,-46.4524537436668
47d334f5f5e5a8f38fd5893ae0e6af35,47fe6a72eb9d07dc449c78b69ce03e03,delivered,1497341779,1497342313,1497422050,1497908258,1499299200,1,7b453aa3584d61c1268d77ba6fd5956b,e26901d5ab434ce92fd9b5c256820a4e,1497860713,109.9,21.26,1,credit_card,2,131.16,78e33ed8ab38a255dd0c980f6f00f703,5,1498003200,1498090516,a973343f2996d5a701dd1c8f60099586,85814,cascavel,PR,-24.915528942004656,-53.419773886490795,utilidades_domesticas,57.0,616.0,2.0,3300.0,50.0,30.0,30.0,9350,maua,SP,-23.68011442853022,-46.4524537436668
0743d4433cd56bbd7b36287a05f94e10,027a044faafdafcaf3956c9e2cfbe69b,delivered,1496872557,1496975432,1497434029,1497623138,1498003200,1,7b453aa3584d61c1268d77ba6fd5956b,e26901d5ab434ce92fd9b5c256820a4e,1497493832,109.9,13.32,1,boleto,1,123.22,ca7cf7ce57b3dbd7ac2e3c23efa5e9c3,5,1497657600,1497746115,3669d77f53c5334085b4582649737f08,3584,sao paulo,SP,-23.56110844463037,-46.48587377032722,utilidades_domesticas,57.0,616.0,2.0,3300.0,50.0,30.0,30.0,9350,maua,SP,-23.68011442853022,-46.4524537436668
fc2a4d7b806b8d5572a052da4a5a6bed,1bdf1e81149f891e3a9c7bdcb9fb7d8b,delivered,1497822681,1497823523,1498125789,1498215084,1498780800,1,7b453aa3584d61c1268d77ba6fd5956b,e26901d5ab434ce92fd9b5c256820a4e,1498169123,109.9,13.32,2,voucher,1,205.75,5f2013bd767754ebe9b9e395976b0532,4,1498262400,1498397122,987c9b1da9988bf39740761c1afe8ef2,8820,mogi das cruzes,SP,-23.512628393866617,-46.152697780880445,utilidades_domesticas,57.0,616.0,2.0,3300.0,50.0,30.0,30.0,9350,maua,SP,-23.68011442853022,-46.4524537436668
fc2a4d7b806b8d5572a052da4a5a6bed,1bdf1e81149f891e3a9c7bdcb9fb7d8b,delivered,1497822681,1497823523,1498125789,1498215084,1498780800,1,7b453aa3584d61c1268d77ba6fd5956b,e26901d5ab434ce92fd9b5c256820a4e,1498169123,109.9,13.32,1,credit_card,2,40.69,5f2013bd767754ebe9b9e395976b0532,4,1498262400,1498397122,987c9b1da9988bf39740761c1afe8ef2,8820,mogi das cruzes,SP,-23.512628393866617,-46.152697780880445,utilidades_domesticas,57.0,616.0,2.0,3300.0,50.0,30.0,30.0,9350,maua,SP,-23.68011442853022,-46.4524537436668
fc2a4d7b806b8d5572a052da4a5a6bed,1bdf1e81149f891e3a9c7bdcb9fb7d8b,delivered,1497822681,1497823523,1498125789,1498215084,1498780800,2,7b453aa3584d61c1268d77ba6fd5956b,e26901d5ab434ce92fd9b5c256820a4e,1498169123,109.9,13.32,2,voucher,1,205.75,5f2013bd767754ebe9b9e395976b0532,4,1498262400,1498397122,987c9b1da9988bf39740761c1afe8ef2,8820,mogi das cruzes,SP,-23.512628393866617,-46.152697780880445,utilidades_domesticas,57.0,616.0,2.0,3300.0,50.0,30.0,30.0,9350,maua,SP,-23.68011442853022,-46.4524537436668
fc2a4d7b806b8d5572a052da4a5a6bed,1bdf1e81149f891e3a9c7bdcb9fb7d8b,delivered,1497822681,1497823523,1498125789,1498215084,1498780800,2,7b453aa3584d61c1268d77ba6fd5956b,e26901d5ab434ce92fd9b5c256820a4e,1498169123,109.9,13.32,1,credit_card,2,40.69,5f2013bd767754ebe9b9e395976b0532,4,1498262400,1498397122,987c9b1da9988bf39740761c1afe8ef2,8820,mogi das cruzes,SP,-23.512628393866617,-46.152697780880445,utilidades_domesticas,57.0,616.0,2.0,3300.0,50.0,30.0,30.0,9350,maua,SP,-23.68011442853022,-46.4524537436668
3f4d4de8598b31eee79eca23f927f676,6b853054552c1c6b3ac6b20db348828b,delivered,1496526974,1496527516,1496829610,1497095991,1498608000,1,7b453aa3584d61c1268d77ba6fd5956b,e26901d5ab434ce92fd9b5c256820a4e,1496873116,109.9,14.52,1,credit_card,6,124.42,aacb7be8aa827ef847fa4329541947cc,5,1497139200,1497223249,a00275218a1ee46f8c320cbc99f7a863,83512,almirante tamandare,PR,-25.319400926164285,-49.30493578183975,utilidades_domesticas,57.0,616.0,2.0,3300.0,50.0,30.0,30.0,9350,maua,SP,-23.68011442853022,-46.4524537436668
a6ecdcdd328d131fadda339f95ca1705,93fd2b69b9d0c330e9749b323402e41f,delivered,1494087296,1494087915,1494317931,1494520076,1496188800,1,7b453aa3584d61c1268d77ba6fd5956b,e26901d5ab434ce92fd9b5c256820a4e,1494519915,109.9,15.52,1,credit_card,9,125.42,e8a75f7e2acda95d2f8eee94c42a643b,4,1494547200,1494683970,1d1bbacbb7e6e4fef4fe1c849b6dd640,27261,volta redonda,RJ,-22.52342397224308,-44.10297319025909,utilidades_domesticas,57.0,616.0,2.0,3300.0,50.0,30.0,30.0,9350,maua,SP,-23.68011442853022,-46.4524537436668
265f4e28ef8cf69f8445e2951bbe7343,c572fd6cdd98e87ea2bc433b6da21078,delivered,1488759268,1488760391,1488794072,1490002136,1491868800,1,7e0dc102074f8285580c9777f79c90cf,e26901d5ab434ce92fd9b5c256820a4e,1489537991,39.9,24.84,1,credit_card,1,64.74,e3f5994b0c7d798259857feb4d43d20c,4,1490054400,1490214289,3e45b1d69bfaf0b7963cbb9dd00196f7,76877,ariquemes,RO,-9.929099172563713,-63.05562375821054,ferramentas_jardim,60.0,1251.0,2.0,800.0,30.0,10.0,30.0,9350,maua,SP,-23.68011442853022,-46.4524537436668
992b568281203a63ab8a57e90b304eec,05e78773584363a69d4f710642402ad1,delivered,1493026193,1493027113,1493109920,1493749172,1495411200,1,7e0dc102074f8285580c9777f79c90cf,e26901d5ab434ce92fd9b5c256820a4e,1493891113,34.9,16.05,1,credit_card,1,50.95,92025c7754c85e98dfb77ac70406088f,4,1493769600,1494080151,d4a10e5b8973506abf64fd987af0c900,79112,campo grande,MS,-20.436939387141962,-54.6579132805616,ferramentas_jardim,60.0,1251.0,2.0,800.0,30.0,10.0,30.0,9350,maua,SP,-23.68011442853022,-46.4524537436668
626c5c9bfe704ebabd98974ff8307803,9835403a86d824be9a0b0cb332f3f7f8,delivered,1491151357,1491152113,1491574416,1492526905,1493251200,1,7e0dc102074f8285580c9777f79c90cf,e26901d5ab434ce92fd9b5c256820a4e,1491929713,34.9,10.96,1,credit_card,1,45.86,2314341f840e5d3963b8f78c9ab62608,5,1492560000,1492989653,aaaa929bac9fc3808e989875aac47ba9,13330,indaiatuba,SP,-23.089034640573626,-47.2144192378671,ferramentas_jardim,60.0,1251.0,2.0,800.0,30.0,10.0,30.0,9350,maua,SP,-23.68011442853022,-46.4524537436668
c147383caa0d8a6b1d8c213e60851483,32fb1374cdbf02da8a9bfc4e2fd3c510,delivered,1490634743,1490635509,1490771217,1491484153,1492560000,1,7e0dc102074f8285580c9777f79c90cf,e26901d5ab434ce92fd9b5c256820a4e,1491413109,34.9,10.96,1,credit_card,4,45.86,ee2af4385aa3a20e1dde96cc9f2376db,5,1491523200,1491906917,fcbe44facf671aa94ab5aa692af24c8d,11700,praia grande,SP,-24.016283558765817,-46.39843570349071,ferramentas_jardim,60.0,1251.0,2.0,800.0,30.0,10.0,30.0,9350,maua,SP,-23.68011442853022,-46.4524537436668
6146a7dc414dd1510ac54aa29c2311ed,39f4205ae1789fd59b6ce79e2cd7c381,delivered,1486909411,1487043929,1487146226,1487599397,1489536000,1,7e0dc102074f8285580c9777f79c90cf,e26901d5ab434ce92fd9b5c256820a4e,1487510611,39.9,10.96,1,boleto,1,50.86,24cbd04b6991907ad0b1be2419e8a6cf,4,1487635200,1487967774,152a803f01c1cf2f04a0ffc8b42a6fa1,2919,sao paulo,SP,-23.49313264946043,-46.71915699194992,ferramentas_jardim,60.0,1251.0,2.0,800.0,30.0,10.0,30.0,9350,maua,SP,-23.68011442853022,-46.4524537436668
d5f7a7805bc55f3aa5f0c267ac2c77ed,c09a03c98715b144a33f291d19c17741,delivered,1493288885,1493289783,1493370847,1493935077,1496275200,1,7e0dc102074f8285580c9777f79c90cf,e26901d5ab434ce92fd9b5c256820a4e,1494326583,34.9,14.52,1,credit_card,1,49.42,2a40e042e279c115554960f65568b880,5,1493942400,1494214070,af4a4064051073083caa2b1d8e2e6ced,35500,divinopolis,MG,-20.14661531714637,-44.892591683425806,ferramentas_jardim,60.0,1251.0,2.0,800.0,30.0,10.0,30.0,9350,maua,SP,-23.68011442853022,-46.4524537436668
9f78c08ae4928d0b51b8ec8da9585714,5c3fb9c8ea09e6fa440dabb20728a5df,delivered,1490306992,1490307766,1490610004,1490889486,1492387200,1,7e0dc102074f8285580c9777f79c90cf,e26901d5ab434ce92fd9b5c256820a4e,1491258166,34.9,10.96,1,credit_card,1,45.86,6fbe6f8d2d9acf0fd2446bb39f1909cb,5,1490918400,1491085394,ae0b2ed66af9ee82a19ef3b6a3cf4e7c,18550,boituva,SP,-23.27965763055659,-47.6618565754143,ferramentas_jardim,60.0,1251.0,2.0,800.0,30.0,10.0,30.0,9350,maua,SP,-23.68011442853022,-46.4524537436668
bcdbca456c84595f3dadfbef9eeeaf51,59cf1a479d104e38587b9fe9d60febe3,delivered,1491257948,1491258618,1491576140,1492609995,1493856000,1,7e0dc102074f8285580c9777f79c90cf,e26901d5ab434ce92fd9b5c256820a4e,1492036218,34.9,16.05,1,credit_card,1,50.95,5b9dc3787499e9266e33f57cb9b69462,5,1492646400,1492743083,02278b7fe04a285092542fa4313cdc31,96065,pelotas,RS,-31.717691664723876,-52.34280772577763,ferramentas_jardim,60.0,1251.0,2.0,800.0,30.0,10.0,30.0,9350,maua,SP,-23.68011442853022,-46.4524537436668
1863ea0df317ace17a6b6021020c2fd8,29554c8dabea94740eeb53e3d5e09478,delivered,1488879141,1488879916,1489049932,1489404246,1490745600,1,7e0dc102074f8285580c9777f79c90cf,e26901d5ab434ce92fd9b5c256820a4e,1489657516,39.9,10.96,1,credit_card,2,50.86,e2575a0d10ebbbed6a19ef4488ab1669,5,1489449600,1489671555,c1d5c14ee6fd3b88eb58fe30031b653c,1224,sao paulo,SP,-23.541718547319537,-46.64883066180968,ferramentas_jardim,60.0,1251.0,2.0,800.0,30.0,10.0,30.0,9350,maua,SP,-23.68011442853022,-46.4524537436668
a7ddbf4f5ef6befd9d3569b1c34a9605,21c8877e6b8dde1b62754d08036ffd1d,delivered,1487622006,1487625915,1487668754,1488803935,1490745600,1,7e0dc102074f8285580c9777f79c90cf,e26901d5ab434ce92fd9b5c256820a4e,1488226806,39.9,14.52,1,credit_card,4,54.42,9572e2f0399bcee812f762e1ae8636b3,4,1488844800,1489011295,9e1fb6b16c75bcaecc2ee20b775ef613,83602,campo largo,PR,-25.4640211403478,-49.550451239912576,ferramentas_jardim,60.0,1251.0,2.0,800.0,30.0,10.0,30.0,9350,maua,SP,-23.68011442853022,-46.4524537436668
ba811df8f38f8b18170fa9d29732ed0f,5f82ddc00ed8b6e8cd8792788c2f5b7a,delivered,1491391097,1491534929,1491576138,1492422851,1493856000,1,7e0dc102074f8285580c9777f79c90cf,e26901d5ab434ce92fd9b5c256820a4e,1492485329,34.9,14.52,1,boleto,1,49.42,280488045d794def589fc89c74c0e857,5,1492473600,1492566782,af4f362d3cae91d1a5471d4fd50dd966,28895,rio das ostras,RJ,-22.50268855112206,-41.92488236917089,ferramentas_jardim,60.0,1251.0,2.0,800.0,30.0,10.0,30.0,9350,maua,SP,-23.68011442853022,-46.4524537436668
aa8315492e537030e29f1bc252d26cb1,9a0c338c3ce99b9896047b86ac665b95,delivered,1487252234,1487297410,1487321626,1488002984,1489968000,1,7e0dc102074f8285580c9777f79c90cf,e26901d5ab434ce92fd9b5c256820a4e,1487853434,39.9,10.96,1,boleto,1,50.86,a081d72bbd7345f0fd34f67cee10ebe1,3,1488067200,1488384850,b9d45d884c2fc0a5eb04aa45ebe44f60,13214,jundiai,SP,-23.148804478137823,-46.92948882832885,ferramentas_jardim,60.0,1251.0,2.0,800.0,30.0,10.0,30.0,9350,maua,SP,-23.68011442853022,-46.4524537436668
1722c7033df589c35fdf704cd5a8779d,ca36659b8e9c66b7e767d492fa167e79,delivered,1489773876,1489773876,1490165073,1490628500,1491955200,1,7e0dc102074f8285580c9777f79c90cf,e26901d5ab434ce92fd9b5c256820a4e,1490724276,34.9,14.52,1,boleto,1,49.42,7ee376b243cd25ee0fe74e6cdc82e885,1,1490659200,1490825159,2c9aaf63524d8830d06d2898b097b464,20541,rio de janeiro,RJ,-22.92531913366395,-43.25369631041029,ferramentas_jardim,60.0,1251.0,2.0,800.0,30.0,10.0,30.0,9350,maua,SP,-23.68011442853022,-46.4524537436668
7a72862f08ad9a6b9debda8e2a65d762,49269e49bdad7f64f75afaf5939326c2,delivered,1489175254,1489175254,1489563132,1490792255,1492473600,1,7e0dc102074f8285580c9777f79c90cf,e26901d5ab434ce92fd9b5c256820a4e,1490125654,34.9,24.84,1,boleto,1,59.74,46aa90ce01cf1cfde093294cad8d4f51,5,1490832000,1490947229,2a868fee78151c23540d4ecec8560e98,55900,goiana,PE,-7.559924763060348,-34.99311916917845,ferramentas_jardim,60.0,1251.0,2.0,800.0,30.0,10.0,30.0,9350,maua,SP,-23.68011442853022,-46.4524537436668
b2728d138cc3cebb796105eedbb4784a,e80a15b9bfbfc93d266599c844f56c8b,delivered,1490037166,1490037166,1490165073,1490805821,1492041600,1,7e0dc102074f8285580c9777f79c90cf,e26901d5ab434ce92fd9b5c256820a4e,1490814766,34.9,14.52,1,credit_card,1,49.42,e9e99b54ce33281c459b7836816b4fa9,3,1490832000,1491098124,e1b5274987593318a464a7db745e2064,32400,ibirite,MG,-20.024982296605387,-44.055840985040376,ferramentas_jardim,60.0,1251.0,2.0,800.0,30.0,10.0,30.0,9350,maua,SP,-23.68011442853022,-46.4524537436668
2660e4e0c99dc944d9935e3b8781d81b,614a669b833b9fa788c043f854607611,delivered,1490544196,1490544914,1490610002,1491387819,1492560000,1,7e0dc102074f8285580c9777f79c90cf,e26901d5ab434ce92fd9b5c256820a4e,1491322514,34.9,10.96,1,credit_card,2,45.86,b2b9b427bb5b13fc68fb965a61281aea,1,1491436800,1491605553,8147f54b5645058999344b9b39902eee,6390,carapicuiba,SP,-23.539218941614852,-46.84530489379082,ferramentas_jardim,60.0,1251.0,2.0,800.0,30.0,10.0,30.0,9350,maua,SP,-23.68011442853022,-46.4524537436668
fd22bd0610424ec9e62c1d98288b51e9,067715fac053f8972e3887e3784e38f4,delivered,1489928929,1489928929,1490165074,1490350693,1491868800,1,7e0dc102074f8285580c9777f79c90cf,e26901d5ab434ce92fd9b5c256820a4e,1490706529,34.9,10.96,1,credit_card,4,45.86,06a3c317914170820d8fa2e3cd5a9fd0,3,1490400000,1490557673,4fb2e7406e0e99946ce171d6d7350e1f,4022,sao paulo,SP,-23.593023000000002,-46.64657250000001,ferramentas_jardim,60.0,1251.0,2.0,800.0,30.0,10.0,30.0,9350,maua,SP,-23.68011442853022,-46.4524537436668
189e8f0e3028e1de97281fd91d4318fe,926305ac1f7842d0f962332060d9d48a,delivered,1493155128,1493155834,1493370854,1493818211,1495152000,1,7e0dc102074f8285580c9777f79c90cf,e26901d5ab434ce92fd9b5c256820a4e,1494192634,34.9,14.52,1,credit_card,2,98.84,34ae8d89fb26669bf28538c533ae6d8b,3,1493856000,1493948134,45b98d22391bfd262db44b1c4085f76f,30260,belo horizonte,MG,-19.92439678489817,-43.911675811414355,ferramentas_jardim,60.0,1251.0,2.0,800.0,30.0,10.0,30.0,9350,maua,SP,-23.68011442853022,-46.4524537436668
189e8f0e3028e1de97281fd91d4318fe,926305ac1f7842d0f962332060d9d48a,delivered,1493155128,1493155834,1493370854,1493818211,1495152000,2,7e0dc102074f8285580c9777f79c90cf,e26901d5ab434ce92fd9b5c256820a4e,1494192634,34.9,14.52,1,credit_card,2,98.84,34ae8d89fb26669bf28538c533ae6d8b,3,1493856000,1493948134,45b98d22391bfd262db44b1c4085f76f,30260,belo horizonte,MG,-19.92439678489817,-43.911675811414355,ferramentas_jardim,60.0,1251.0,2.0,800.0,30.0,10.0,30.0,9350,maua,SP,-23.68011442853022,-46.4524537436668
ba3260d70e1adafdc761bc92754d55aa,f18c5dbd896aab713430c0560ecca449,delivered,1490384297,1490385015,1490610002,1490887371,1492473600,1,7e0dc102074f8285580c9777f79c90cf,e26901d5ab434ce92fd9b5c256820a4e,1491335415,34.9,10.96,1,credit_card,1,45.86,87e8c99e4680bb94ef0e8abfaf25bebc,5,1490918400,1499551175,5bd17f5327e1b09de119b707776dcfc0,18200,itapetininga,SP,-23.587964350055923,-48.05051510499034,ferramentas_jardim,60.0,1251.0,2.0,800.0,30.0,10.0,30.0,9350,maua,SP,-23.68011442853022,-46.4524537436668
ff8ac98b246381dba3eb9d51e77faf6c,2f5f1572415e02d8955c27c1f5b462b5,delivered,1488986106,1488986106,1489051104,1489504919,1490832000,1,7e0dc102074f8285580c9777f79c90cf,e26901d5ab434ce92fd9b5c256820a4e,1489763706,39.9,10.96,1,credit_card,3,50.86,95b961555c16aa3e1a01d8f0e441286b,3,1489536000,1489845099,d4bd5654b8fe422766fe81834793a59a,13211,jundiai,SP,-23.179889672043977,-46.92851010931866,ferramentas_jardim,60.0,1251.0,2.0,800.0,30.0,10.0,30.0,9350,maua,SP,-23.68011442853022,-46.4524537436668
fe586a853555fc16df58af7c72fc30dc,b5d969127bdba5ee81d09c86e6363176,delivered,1489576021,1489576021,1490165917,1490978821,1491955200,1,7e0dc102074f8285580c9777f79c90cf,e26901d5ab434ce92fd9b5c256820a4e,1490353621,34.9,16.05,1,boleto,1,50.95,ddfb8b6026acfd79f54bb22e66df75bb,4,1491004800,1491309106,ad9a41097bbd4fb4fd0e84f7b409cffd,95320,nova prata,RS,-28.794743528449413,-51.61122120996593,ferramentas_jardim,60.0,1251.0,2.0,800.0,30.0,10.0,30.0,9350,maua,SP,-23.68011442853022,-46.4524537436668
20550ea4a86fb3f3cc065b2598ebb01c,04868d933fddca2e3fc9b32a6ca0b921,delivered,1485790344,1485923720,1485943696,1486566229,1489363200,1,7e0dc102074f8285580c9777f79c90cf,e26901d5ab434ce92fd9b5c256820a4e,1486395144,39.9,18.0,1,boleto,1,57.9,72e3c64ab10976877eac371141d08c71,5,1486598400,1487024138,0d51c3b389b1778a88ebe889c12619a1,20561,rio de janeiro,RJ,-22.923126168734587,-43.260752178746564,ferramentas_jardim,60.0,1251.0,2.0,800.0,30.0,10.0,30.0,9350,maua,SP,-23.68011442853022,-46.4524537436668
9d9e1b9930eafd4cf6f0cda424888864,a72de5c8394aa1b9e9f58a17b9de3ec0,delivered,1490778940,1490865747,1491579135,1492520887,1492992000,1,7e0dc102074f8285580c9777f79c90cf,e26901d5ab434ce92fd9b5c256820a4e,1491816147,34.9,10.96,1,credit_card,1,91.72,594a241234ac46e77e0b3c03a1a718ba,1,1492560000,1492777055,c1ee797afa023bc28e76191df28129aa,13280,vinhedo,SP,-23.03533971746776,-46.97157885039535,ferramentas_jardim,60.0,1251.0,2.0,800.0,30.0,10.0,30.0,9350,maua,SP,-23.68011442853022,-46.4524537436668
9d9e1b9930eafd4cf6f0cda424888864,a72de5c8394aa1b9e9f58a17b9de3ec0,delivered,1490778940,1490865747,1491579135,1492520887,1492992000,2,7e0dc102074f8285580c9777f79c90cf,e26901d5ab434ce92fd9b5c256820a4e,1491816147,34.9,10.96,1,credit_card,1,91.72,594a241234ac46e77e0b3c03a1a718ba,1,1492560000,1492777055,c1ee797afa023bc28e76191df28129aa,13280,vinhedo,SP,-23.03533971746776,-46.97157885039535,ferramentas_jardim,60.0,1251.0,2.0,800.0,30.0,10.0,30.0,9350,maua,SP,-23.68011442853022,-46.4524537436668
